[
  {
    "name": "CANADIAN SPECIALIST HOSPITAL-DEIRA(DUBAI)",
    "address": "DEIRA BRANCH,DUBAI -",
    "lat": 25.271003,
    "lon": 55.305133
  },
  {
    "name": "MEDCARE ORTHOPAEDICS AND SPINE HOSPITAL(DUBAI)",
    "address": "Sheikh Zayed Road, After 2nd Interchange ,Jumeirah Dubai -",
    "lat": 25.080209,
    "lon": 55.283596
  },
  {
    "name": "AL ZAHRA (PVT) HOSPITAL DUBAI (LLC) (DUBAI)",
    "address": "P.O Box 124412, Sheikh Zayed Road , Al Barsha 1 - Dubai, United Arab Emirates",
    "lat": 25.11436,
    "lon": 55.190681
  },
  {
    "name": "PRIME HOSPITAL LLC (DUBAI)",
    "address": "Beside Le Meridian Hotel, Casablanca Street, Dubai Airport Road, Al Garhoud, -",
    "lat": 24.911489,
    "lon": 55.796205
  },
  {
    "name": "ASTER HOSPITAL MANKHOOL(DUBAI)",
    "address": "Next to Sharaf DG, Kuwait Street, Mankhool Area, Bur Dubai, -",
    "lat": 25.253754,
    "lon": 55.284869
  },
  {
    "name": "EMIRATES SPECIALITY HOSPITAL FZ-LLC (DUBAI)",
    "address": "Building Number 62, Dubai Healthcare City, Dubai -",
    "lat": 25.080209,
    "lon": 55.283596
  },
  {
    "name": "IRANIAN HOSPITAL DUBAI (DUBAI)",
    "address": "Al Wasl Road, Jumeira � 1, Dubai, UAE -",
    "lat": 25.2303679,
    "lon": 55.26943945046038
  },
  {
    "name": "ASTER HOSPITAL AL QUSAIS(DUBAI)",
    "address": "9 A Street, Al Qusais Industrial Area 2, Opp. to Madina Mall, Al Qusais, Dubai -",
    "lat": 25.072712,
    "lon": 55.137281
  },
  {
    "name": "ASTER HOSPITAL SONAPUR LLC (DUBAI)",
    "address": "Algeria Street, Muhaisnah, Sonapur, Dubai -",
    "lat": 25.242695,
    "lon": 55.428376
  },
  {
    "name": "CLEMENCEAU MEDICAL CENTER FZ-LLC (DUBAI)",
    "address": "Building 22, PO Box 112693, DHCC Phase 2, Al Jadaf, Dubai -",
    "lat": 25.21243,
    "lon": 55.318104
  },
  {
    "name": "EMIRATES HOSPITAL JUMEIRAH(DUBAI)",
    "address": "Jumeirah 2, Jumeirah Beach Road -",
    "lat": 25.206496,
    "lon": 55.243866
  },
  {
    "name": "ZULEKHA HOSPITAL (DUBAI)",
    "address": "Opp Al Nahda Park - 204th Rd - Dubai -",
    "lat": 25.291399,
    "lon": 55.384095
  },
  {
    "name": "DUBAI LONDON CLINIC HOSPITAL - JUMEIRAH (DUBAI)",
    "address": "Jumeriah Beach Road, Umm Suqeim 2 - Dubai, United Arab Emirates",
    "lat": 25.152984,
    "lon": 55.201383
  },
  {
    "name": "INTERNATIONAL MODERN HOSPITAL (DUBAI)",
    "address": "Sheikh Rashid Road, Al Rafa�a Area, Bur Dubai -",
    "lat": 25.260976,
    "lon": 55.269157
  },
  {
    "name": "NEURO SPINAL HOSPITAL (DUBAI)",
    "address": "Umm Suqeim street, Al Barsha, Al Barsha South, PO Box 71444, Dubai Science Park - Dubai, United Arab Emirates",
    "lat": 25.122073,
    "lon": 55.202169
  },
  {
    "name": "KARAMA MEDICAL CENTER (DUBAI)",
    "address": "3RD FLR, SONY SHOWROOM, KARAMA, DUBAI -",
    "lat": 24.980581,
    "lon": 55.156157
  },
  {
    "name": "UNION MEDICAL CENTER -MOOPENS (DUBAI)",
    "address": "Opp:Wall Street Exchange, Iranian School Road, Karama, Dubai -",
    "lat": 25.244961,
    "lon": 55.304744
  },
  {
    "name": "PRIME MEDICAL CENTRE JUMEIRAH(DUBAI)",
    "address": "AL FEDOUS 1, AL WASL ROAD, DUBAI, UAE -",
    "lat": 25.194384,
    "lon": 55.245584
  },
  {
    "name": "PRIME MEDICAL CENTRE SHEIKH ZAYED ROAD (DUBAI)",
    "address": "IBRI HOUSE, MEZZANINE & GROUND FLOOR, SHEIKH ZAYED ROAD, DUBAI, UAE -",
    "lat": 25.11436,
    "lon": 55.190681
  },
  {
    "name": "AL MANSOOR MEDICAL CENTER(DUBAI)",
    "address": "101 AL Moosa Building , Musallah Road , Bur Dubai -",
    "lat": 25.262499,
    "lon": 55.296249
  },
  {
    "name": "NASSER CLINIC (DUBAI)",
    "address": "DUBAI -",
    "lat": 25.151288,
    "lon": 55.213682
  },
  {
    "name": "AWAAM MEDICAL CENTRE (DUBAI)",
    "address": "DUBAI -",
    "lat": 25.049023,
    "lon": 55.129978
  },
  {
    "name": "ABBARA POLYCLINIC (DUBAI)",
    "address": "DUBAI -",
    "lat": 25.2622241,
    "lon": 55.3275378
  },
  {
    "name": "VISTA HEALTH CARE CLINIC (DUBAI)",
    "address": "3, SULTAN BUSINESS CENTER, ADJACENT TO LAMCY PLAZA, PO Box 112167, OUD MEHTA -",
    "lat": 25.233567,
    "lon": 55.309095
  },
  {
    "name": "DR.MOOPENS POLYCLIN-ALMUTEENA DEIRA PLUS (DUBAI)",
    "address": "Opp: Al futtaim mosque, naif road, Deira -",
    "lat": 25.269191,
    "lon": 55.304954
  },
  {
    "name": "EMIRATES INTEGRATED MEDICAL CENTRE (DUBAI)",
    "address": "Flat no: 406, Block B, 4th Floor, Ibn Sina Bldg, Dubai Healthcare City -",
    "lat": 25.101906,
    "lon": 55.170886
  },
  {
    "name": "DR.MOOPENS MEDICAL CEN-KARAMA BR (DUBAI)",
    "address": "Al Sherouq Building, Shop no 1, Ground floor, Karama, Dubai -",
    "lat": 25.223186,
    "lon": 55.290459
  },
  {
    "name": "WELLBEING MEDICAL CENTER (DUBAI)",
    "address": "VILLA NO: 1146, NEAR CHOITHRAM SUPERMARKET, UM SEQUIM 2, AL WASL -",
    "lat": 25.198252,
    "lon": 55.256618
  },
  {
    "name": "DR. FATHI EMARA MEDICAL  POLYCLINIC (DUBAI)",
    "address": "2nd Floor, Al asheera pharmacy bldg,Opp: Sheraton Hotel Deira, Madina Road, Deira -",
    "lat": 25.28036,
    "lon": 55.30524
  },
  {
    "name": "DRS. NICOLAS & ASP CENTRE-MARINA WALK(DUBAI)",
    "address": "Mesk Tower Emmar Building, Marina Walk, Dubai, UAE -",
    "lat": 25.084429,
    "lon": 55.149189
  },
  {
    "name": "DRS. NICOLAS & ASP CENTRE-JBR REMAL(DUBAI)",
    "address": "NSPV-Ff-27, The New Springs Village, Emirates Hills, Unnamed, Dubai -",
    "lat": 25.065593,
    "lon": 55.192513
  },
  {
    "name": "PRIME MEDICAL CENTER BUR DUBAI (DUBAI)",
    "address": "3rd Floor, Burjuman Center, Khalid Bin Al Waleed Road, BUR DUBAI, DUBAI, UAE -",
    "lat": 25.218623,
    "lon": 55.284415
  },
  {
    "name": "OPEN MRI FOR  SPINE SURGERY(DUBAI)",
    "address": "DUBAI, UAE. JUMEIRAH BEACH ROAD -",
    "lat": 25.206496,
    "lon": 55.243866
  },
  {
    "name": "MEDWIN MEDICAL CENTRE (DUBAI)",
    "address": "DUBAI -",
    "lat": 25.2663469,
    "lon": 55.2957273
  },
  {
    "name": "NEW MEDWIN MEDICAL CENTRE (DUBAI)",
    "address": "DUBAI -",
    "lat": 25.181135,
    "lon": 55.224343
  },
  {
    "name": "ASTER JEBEL ALI MEDICAL CENTER-(DUBAI)",
    "address": "Mezzanine Floor,NESTO Hyper Market, Industrial Area 1, Jebel Ali, Dubai, U A E -",
    "lat": 24.969936,
    "lon": 55.167983
  },
  {
    "name": "FAKIH IVF LLC  (DUBAI)",
    "address": "Villa 37, 65b St, Al Wasl Rd, Jumeirah 1,DUBAI -",
    "lat": 25.080209,
    "lon": 55.283596
  },
  {
    "name": "SULTAN AL OLAMA MEDICAL CENTER(DUBAI)",
    "address": "DUBAI -",
    "lat": 25.180056,
    "lon": 55.235363
  },
  {
    "name": "AL BIRAA ARTHRITIS & BONE CLINIC (DUBAI)",
    "address": "Villa # 1029,Opposite Choithram Supermarket,Al Wasl Road, Al Manara, -",
    "lat": 25.14922,
    "lon": 55.211776
  },
  {
    "name": "AMBER CLINIC-RIGGA GHI LLC  (DUBAI)",
    "address": "2ND FLOOR,RIGGA BUSINESS CENTER- RIGGA ( DUBAI) -",
    "lat": 25.00424,
    "lon": 55.154065
  },
  {
    "name": "FIRST CARE CLINIC (DUBAI)",
    "address": "Near Al Mulla Plaza, Opposite Grand Station,Al Waheeda Street, Al Mamzar, -",
    "lat": 25.35123,
    "lon": 55.387502
  },
  {
    "name": "SPECIALIST MEDICAL CENTRE (DUBAI)",
    "address": "Villa 1114,Al Wasl Road,UMM Suqaim 2, -",
    "lat": 25.197742,
    "lon": 55.2474167
  },
  {
    "name": "DR. JOSEPH GHRAYEB POLYCLINIC (DUBAI)",
    "address": "Zabeel Building, 1st Floor, Flat #110, Um Hurair Road, Near Karama General Post Office, Dubai -",
    "lat": 25.239176,
    "lon": 55.305924
  },
  {
    "name": "HARLEY INTERNATIONAL CLINIC (DUBAI)",
    "address": "First Floor, Nashwan Building, Al Mankhool, PO Box 34801, Near Dubai Library - Dubai, United Arab Emirates",
    "lat": 25.253393,
    "lon": 55.293529
  },
  {
    "name": "MEDGATE CENTRE (DUBAI)",
    "address": "Villa 671, Jumeirah Beach Road, PO Box 126982, Umm Suqeim 2 - Dubai, United Arab Emirates",
    "lat": 25.171075,
    "lon": 55.216674
  },
  {
    "name": "LIFE MEDICAL CENTRE DMCC (DUBAI)",
    "address": "Fortune Executive Tower, Floor No.1203, 12th Floor, Al Sarayan Street, PO Box 49508, JLT - Dubai, United Arab Emirates",
    "lat": 25.268137,
    "lon": 55.300518
  },
  {
    "name": "MEDCARE MEDICAL CENTRE  JBR BR (DUBAI)",
    "address": "Opp Al Safa Park, Gate No I, Jumeirah, Dubai. -",
    "lat": 25.208581,
    "lon": 55.263424
  },
  {
    "name": "ASTER AL NAHDA CLINIC (DUBAI)",
    "address": "Amman Street, Opposite NMC Specialty Hospital, Al Nahda, Dubai. -",
    "lat": 25.294348,
    "lon": 55.373203
  },
  {
    "name": "KIMS MEDICAL CENTRE LLC(DUBAI)",
    "address": "Next to Abu Baker Al Siddique Metro Station, Al Muraqqabat, Deira -",
    "lat": 25.263632,
    "lon": 55.323751
  },
  {
    "name": "NEW LOTUS MEDICAL CENTRE LLC (DUBAI)",
    "address": "Ground Floor, Al Qusais Building 1, 251-Damascus Street, PO Box 95771, Al Qusais-1 - Dubai, United Arab Emirates",
    "lat": 25.258541,
    "lon": 55.400035
  },
  {
    "name": "ICARE OASIS BRANCH(DUBAI)",
    "address": "2nd Floor, Oasis Center Mall, Sheikh Zayed Road -",
    "lat": 25.40702,
    "lon": 55.553751
  },
  {
    "name": "SYMBIOSIS MEDICAL CENTRE FZCO - SILICON OASIS (DUBAI)",
    "address": "Ground Floor, Cedre Shopping Centre, PO Box 341283, Dubai Silicon Oasis - Dubai, United Arab Emirates",
    "lat": 25.24899,
    "lon": 55.30054
  },
  {
    "name": "UNICARE MEDICAL CENTRE BR (DUBAI)",
    "address": "Villa #  172, Near New Dubai Nursery, Mankhool Road, Satwa, Dubai -",
    "lat": 25.080209,
    "lon": 55.283596
  },
  {
    "name": "AL ALIAA  POLYCLINIC (DUBAI)",
    "address": "Villa #327, Next to Chillis & Neurospinal Hospital, Opposite Dubai Ladies Club Jumeirah 2,, -",
    "lat": 25.150023,
    "lon": 55.212641
  },
  {
    "name": "GULF MEDICAL CENTRE BR AL QUSAIS (DUBAI)",
    "address": "Nasser Lootha Bldg, Near Eppco Station Al Qusais -",
    "lat": 25.260581,
    "lon": 55.332609
  },
  {
    "name": "VITALITE HEALTH AND WELLNESS CENTER LLC(DUBAI)",
    "address": "Shop no: F20, Mudon Community Centre, Mudon, Dubai, UAE -",
    "lat": 25.02721,
    "lon": 55.267508
  },
  {
    "name": "ASTER JUBILE MEDICAL CENTRE PLUS (DUBAI)",
    "address": "Al Futtaim Building , Ground Floor, Khalid bin Al Waleed Road, \n -",
    "lat": 25.260017,
    "lon": 55.293807
  },
  {
    "name": "COCOONA AESTHETIC TRANSFORMATION (DUBAI)",
    "address": "Villa 898, Al Raaji Street, Al Wasl Road, Umm Suqueim, Dubai, UAE -",
    "lat": 25.16646,
    "lon": 55.221281
  },
  {
    "name": "DR. ISMAIL POLYCLINIC KARAMA (DUBAI)",
    "address": "SHEIKH MOHD BLDG, FLOOR # 1, FLAT # A7, KARAMA -",
    "lat": 25.274011,
    "lon": 55.326333
  },
  {
    "name": "DR.ISMAIL MEDICAL CENTRE ALQUOZ (DUBAI)",
    "address": "-",
    "lat": 25.049023,
    "lon": 55.129978
  },
  {
    "name": "KARAMA MEDICAL CENTRE AL QUOZ (DUBAI)",
    "address": "-",
    "lat": 25.1388961,
    "lon": 55.2531021
  },
  {
    "name": "KARAMA MEDICAL CENTRE DIP (DUBAI)",
    "address": "-",
    "lat": 24.980581,
    "lon": 55.156157
  },
  {
    "name": "PRIMACARE SPECIALITY CLINICS LLC(DUBAI)",
    "address": "Mezzanine Floor, Al Musalla Tower, Bank Street, PO BOX 26238, Bur Dubai, UAE -",
    "lat": 25.089393,
    "lon": 55.153083
  },
  {
    "name": "JUPITER  AL NAHDA POLYCLINIC LLC (DUBAI)",
    "address": "Trio 3, 19 A Street, Aman Street, PO Box 126997, Al Nahda 2 - Dubai, United Arab, Emirates",
    "lat": 25.080209,
    "lon": 55.283596
  },
  {
    "name": "AL NOOR POLYCLINIC-SATWA GHI LLC (DUBAI)",
    "address": "OPP.ALMAYA SUPERMARKET, AL OTTAIBA BLDG, SATWA -",
    "lat": 25.217128,
    "lon": 55.267457
  },
  {
    "name": "ASTER MEDICAL CENTER ALQUSAIS BR PLUS (DUBAI)",
    "address": "AQU building, Sheikh Colony,Near DAFZA Metro Station,Dubai -",
    "lat": 25.223186,
    "lon": 55.290459
  },
  {
    "name": "KARAMA MEDICAL CENTER BR JVC (DUBAI)",
    "address": "NO.4 BUILDING M1, AMSA JUMEIRAH VILLAGE CIRCLE, DUBAI. -",
    "lat": 24.980581,
    "lon": 55.156157
  },
  {
    "name": "KARAMA MEDICAL CENTRE BR DEIRA (DUBAI)",
    "address": "NEAR NAIF POLICE STATION, DEIRA, DUBAI. -",
    "lat": 24.980581,
    "lon": 55.156157
  },
  {
    "name": "ICARE UP TOWN  MIRDIF BRANCH(DUBAI)",
    "address": "opp Spinneys, Up town Mirdiff, Dubai -",
    "lat": 25.080209,
    "lon": 55.283596
  },
  {
    "name": "ADVANCED ORTHOSPINE HEALTH CENTER (DUBAI)",
    "address": "Office # 209, Al Shafar 7 Bldg Al Wasal Road, Al Badaa Area, -",
    "lat": 25.21368,
    "lon": 55.258564
  },
  {
    "name": "ASTER MEDICAL CENTER ASWAAQ MALL PLUS (DUBAI)",
    "address": "ASWAAQ AL BARSHA SOUTH COMMUNITY CENTRE, DUBAI, U A E -",
    "lat": 25.123498,
    "lon": 55.222311
  },
  {
    "name": "PRIMACARE SPECIALITY CLINICS LLC BRANCH(DUBAI)",
    "address": "6th Floor, Al Musalla Tower, Bank ST, PO BOX 26238, Bur Dubai, UAE -",
    "lat": 25.089393,
    "lon": 55.153083
  },
  {
    "name": "AL JAMEELA POLYCLINIC (DUBAI)",
    "address": "First Floor, Flat # 104,  New Kuwaiti Bldg, Naif Road, -",
    "lat": 25.271141,
    "lon": 55.309967
  },
  {
    "name": "AXON MEDICA MEDICAL CENTER LLC-JEBEL ALI(DUBAI)",
    "address": "The Garden, Bulding No-8, Jebal Ali, Dubai -",
    "lat": 25.053701,
    "lon": 55.264128
  },
  {
    "name": "DR. MAZEN MOHAMAD POLYCLINIC LLC (DUBAI)",
    "address": "Sunset Mall office 25, 2nd Floor Jumeirah Beach Road, Jumeirah 3, Dubai -",
    "lat": 25.080209,
    "lon": 55.283596
  },
  {
    "name": "AMERICAN HOSPITAL CLINICS DUBAI MEDIA CITY BR OF AMERICAN HOSPITAL DUBAI LLC (DUBAI)",
    "address": "Business Central Towers,Al Sofouh Second ,Shaikh Zayed Road -",
    "lat": 25.100543,
    "lon": 55.169108
  },
  {
    "name": "MEDICORP GULF MEDICAL CLINIC LLC (DUBAI)",
    "address": "1ST Floor, Al Shafar Bldg # 7,Al Wasl Road, -",
    "lat": 25.225056,
    "lon": 55.265804
  },
  {
    "name": "MERCATO FAMILY CLINIC (DUBAI)",
    "address": "Villa 3A, First Floor, 69th A Street, PO Box 28188, Jumeirah 1, Mercato Mall - Dubai, United Arab Emirates",
    "lat": 25.197403,
    "lon": 55.276767
  },
  {
    "name": "ARABLE MEDICAL CENTER (DUBAI)",
    "address": "42nd Floor .Single Business Tower, Business Bay -",
    "lat": 25.188116,
    "lon": 55.258532
  },
  {
    "name": "HEALTH BAY POLYCLINIC MOTOR CITY (DUBAI)",
    "address": "G04, Detroit House Building, Detroit Road, Motor City - Dubai, United Arab Emirates",
    "lat": 25.042826,
    "lon": 55.241606
  },
  {
    "name": "TRANSFORM SPECIALIST MEDICAL CENTRE BR(DUBAI)",
    "address": "Al Wasal Road, Al Shafar Building 7 -",
    "lat": 25.783187,
    "lon": 55.937295
  },
  {
    "name": "BURJEEL MEDICAL AND WELLNESS CENTRE(DUBAI)",
    "address": "UAE FOOTBALL ASSOCIATION COMPLEX,AL KHAWANEEJ,DUBAI,UAE -",
    "lat": 25.223,
    "lon": 55.504356
  },
  {
    "name": "KIDSHEART MEDICAL CENTER FZ-LLC(DUBAI)",
    "address": "604 Block A Building 27 Ibn Sina Complex,Dubai Healthcare City -",
    "lat": 25.249465,
    "lon": 55.287179
  },
  {
    "name": "ISLAMABAD MEDICAL CLINIC LLC (DUBAI)",
    "address": "RETAIL NO 4, BLDG RESIDENCE 0943, ABU BAKR AL SIDDIQUE, HOR AL ANZ DEIRA, DUBAI -",
    "lat": 25.080209,
    "lon": 55.283596
  },
  {
    "name": "NEW MEDICAL CENTRE LLC (NMC-DEIRA) (DUBAI)",
    "address": "DUBAI -",
    "lat": 25.276596,
    "lon": 55.346069
  },
  {
    "name": "AL GARHOUD PRIVATE HOSPITAL CLINIC(DUBAI)",
    "address": "JUMEIRAH ROAD, DUBAI -",
    "lat": 25.110623,
    "lon": 55.141322
  },
  {
    "name": "LIVERPOOL MEDICAL CLINIC (DUBAI)",
    "address": "Mezzanine Floor, Mohammed Amin Falaknaz Building, Khalid Bin Waleed Road, Bur Dubai -",
    "lat": 25.25964,
    "lon": 55.287652
  },
  {
    "name": "CLINICARE SAMARI(BR OF IMARA HC (DUBAI)",
    "address": "Samari Retail Mall, Next to Samari Residence,Ras Al Khor,DUBAI -",
    "lat": 25.080209,
    "lon": 55.283596
  },
  {
    "name": "VCARE POLYCLINIC LLC (DUBAI)",
    "address": "Nasmah Tower, Ground Floor, Near Lavender Hotel, Al Ittihad, PO Box 236676, Al Nahda 1 - Dubai, United Arab Emirates",
    "lat": 25.28106,
    "lon": 55.356313
  },
  {
    "name": "WE CARE MEDICAL CENTER LLC (DUBAI)",
    "address": "HAMSAH BUILDING, GROUND FLOOR ANSAR GALLERY, KHALID BIN AL WALEED ROAD, KARAMA, DUBAI -",
    "lat": 25.149143,
    "lon": 55.198151
  },
  {
    "name": "MARINA MEDICAL CENTER (DUBAI)",
    "address": "Next to Skydive Dubai entrance,Botanica Tower,G-FL.,Retail 2,Dubai Marina -",
    "lat": 25.075161,
    "lon": 55.137036
  },
  {
    "name": "FMC MEDICAL CENTER LLC(DUBAI)",
    "address": "VILLA# 921, NEAR EMARAT PETROL STATION, AL WASL ROAD,Umm Suqeim 2 -",
    "lat": 25.137896,
    "lon": 55.203251
  },
  {
    "name": "THE CHIRON CLINIC (DUBAI)",
    "address": "160a 2D Street, Al Bada'a / Jumeirah 1,Near City walk Life Pharmacy(Al Wasl), Dubai -",
    "lat": 25.205211,
    "lon": 55.263927
  },
  {
    "name": "ICARE KARAMA BRANCH (DUBAI)",
    "address": "S5,R364, Al Wasl Bldg., Nearby Karama Post Office, Zabeel Road, Dubai -",
    "lat": 25.080209,
    "lon": 55.283596
  },
  {
    "name": "AL MAJD MEDICAL CLINIC (DUBAI)",
    "address": "#604 Green Corner Building,Al Rigga Street,Same Building With Burger King -",
    "lat": 25.360865,
    "lon": 55.39044
  },
  {
    "name": "ZIA MEDICAL CENTRE (DUBAI)",
    "address": "Jumeirah Umm Sequim 1, Ajman Bank Same Building, Dubai -",
    "lat": 25.165537,
    "lon": 55.21227
  },
  {
    "name": "MEDCARE MEDICAL CENTRE � RASHIDIYA(DUBAI)",
    "address": "Bin Sougat Centre - Air Port Road - Rashidiya - Dubai -",
    "lat": 25.255944,
    "lon": 55.337058
  },
  {
    "name": "LESPRIT MEDICAL CLINIC LLC (DUBAI)",
    "address": "Villa 3-4,510, Jumeirah 3, Jumeirah Road, Dubai -",
    "lat": 25.239378,
    "lon": 55.270559
  },
  {
    "name": "PRIME MEDICAL CENTER REEF MALL LLC (DUBAI)",
    "address": "3rd Floor of Reef Mall, Salahuddin Road, Deira, Dubai, UAE -",
    "lat": 25.27018,
    "lon": 55.323288
  },
  {
    "name": "HEALTH BAY POLYCLINIC BR (DUBAI)",
    "address": "Verve Villas 1 To 6, Umm Al Sheif, Al Wasl Road - Dubai, United Arab Emirates",
    "lat": 25.080209,
    "lon": 55.283596
  },
  {
    "name": "OKARE POLYCLINIC (DUBAI)",
    "address": "Ground Floor, Uptown Mirdiff Mall, Algeria Street 37, PO Box 36494, Mirdiff - Dubai, United Arab Emirates",
    "lat": 25.2456587,
    "lon": 55.4304772
  },
  {
    "name": "MEDILIFE POLYCLINIC L.L.C (DUBAI)",
    "address": "Al Ameed Mall, Near Al Emirates Post , Al Quoz, Dubai -",
    "lat": 25.168284,
    "lon": 55.253511
  },
  {
    "name": "SPANISH CENTRE LASIK & EYES & COSMETIC LLC(DUBAI)",
    "address": "Villa 262, Jumeirah 2, Jumeirah Beach Road, Dubai -",
    "lat": 25.206496,
    "lon": 55.243866
  },
  {
    "name": "HTK  MEDICAL CENTER LLC (DUBAI)",
    "address": "Ground Floor Doha Centre Al Maktoom Road, Deira, Dubai -",
    "lat": 25.272615,
    "lon": 55.307175
  },
  {
    "name": "ABEER AL NOOR POLYCLINIC LLC BRANCH(DUBAI)",
    "address": "Room No.6&31;Musthafa Mall;Adjacent To Algeria Street;Street No.19;Muhaisnah-2;Dubai -",
    "lat": 25.080209,
    "lon": 55.283596
  },
  {
    "name": "ALMAVITA MEDICAL CLINIC FZ LLC(DUBAI)",
    "address": "Dubai Healthcare City, Ibn Sina Building 27, Block B, Clinic 501, Dubai -",
    "lat": 25.039787,
    "lon": 55.233125
  },
  {
    "name": "ASTER MEDICAL LABORATORY(DUBAI)",
    "address": "Abuhail Building, Ground Floor, 25Th Street, Abuhail, Dubai, UAE -",
    "lat": 25.29528,
    "lon": 55.376643
  },
  {
    "name": "AL SHIFA AL KHALEEJI MEDICAL CENTRE LLC BR(DUBAI)",
    "address": "Bayan Business Center,Opp. Carrefour Exp., Dubai Investment Park-1, Dubai -",
    "lat": 25.223186,
    "lon": 55.290459
  },
  {
    "name": "EMIRATES STAR MEDICAL CENTRE(DUBAI)",
    "address": "Behind Al khail Gate-2, Al Quoz Industrial Area-2 -",
    "lat": 25.13878,
    "lon": 55.249904
  },
  {
    "name": "AL TAIF MEDICAL CENTRE(DUBAI)",
    "address": "Haji Mohamed Mubarak Bldg., Naif Road, Deira -",
    "lat": 25.28036,
    "lon": 55.30524
  },
  {
    "name": "EMIRATES HOSPITAL CLINICS LLC PALM BRANCH(DUBAI)",
    "address": "Mezzanine, Building 9, Golden Mile Galleria, Palm Jumeirah, Dubai -",
    "lat": 25.080209,
    "lon": 55.283596
  },
  {
    "name": "EMIRATES HOSPITALS AND CLINICS-DUBAI MARINA 20TH FLOOR(DUBAI)",
    "address": "Habtoor Business Tower, OPP. Habtoor Grand Hotel, Dubai -",
    "lat": 25.218628,
    "lon": 55.253605
  },
  {
    "name": "EMIRATES HOSPITALS AND CLINICS LLC BRANCH-CONRAD(DUBAI)",
    "address": "Conrad Business Towers- Shaikh Zayed Road, Dubai -",
    "lat": 25.081085,
    "lon": 55.138604
  },
  {
    "name": "EMIRATES HOSPITALS CLINICS BUSINESS BAY L.L.C.(DUBAI)",
    "address": "Business Bay Avenue, Mezzanine Floor, Shop: F54, Business Bay, Dubai -",
    "lat": 25.184371,
    "lon": 55.259655
  },
  {
    "name": "EMIRATES HOSPITAL GROUP- KLINIKA MAHARLIKA CLINIC- SATWA(DUBAI)",
    "address": "Al Hana Center, Al Mankhool Road, Jafiliya, Dubai -",
    "lat": 25.080209,
    "lon": 55.283596
  },
  {
    "name": "EMIRATES HOSPITALS WELLNESS & OBESITY CENTER(DUBAI)",
    "address": "Floor P4, Marina Terrace Building, Dubai Marina -",
    "lat": 25.085059,
    "lon": 55.145328
  },
  {
    "name": "EMIRATES HOSPITALS REHABILITATION AND HOMECARE SERVICES LLC(DUBAI)",
    "address": "Villa 13, Street 5A, Abuhail, Deira, Dubai -",
    "lat": 25.2974341,
    "lon": 55.3400709
  },
  {
    "name": "AL GARHOUD PRIVATE HOSPITAL CLINIC JUMEIRAH(DUBAI)",
    "address": "Villa 39, Jumeirah 1, Dubai, United Arab Emirates -",
    "lat": 25.066639,
    "lon": 55.14382
  },
  {
    "name": "AL GARHOUD PRIVATE HOSPITAL CLINIC JUMAIRA ISLANDS(DUBAI)",
    "address": "JI-B5-RT-05B,Jumeirah Islands Pavilion,Jumeirah Islands, Dubai -",
    "lat": 25.065736,
    "lon": 55.147225
  },
  {
    "name": "FIFA SPORT MEDICAL CENTER OF EXCELLENCE DUBAI LLC(DUBAI)",
    "address": "Al Wuheida Street, Al Shabab Al Arabi Football Club, Al Mamzar, Dubai -",
    "lat": 25.293953,
    "lon": 55.340907
  },
  {
    "name": "AL KHAIL MEDICAL CENTRE (DUBAI)",
    "address": "Shop no 57, 58 Inside AL Quoz Mall, AL Quoz Industrial Area No-3 Dubai -",
    "lat": 25.122661,
    "lon": 55.223149
  },
  {
    "name": "AL KHAIL MEDICAL CENTRE BRANCH(DUBAI)",
    "address": "Mezannine Floor Inside Fida Al Madina Hypermarket DIP-2 Jable Ali Dubai -",
    "lat": 25.271651,
    "lon": 55.311919
  },
  {
    "name": "EUROMED CLINIC CENTRE (DUBAI)",
    "address": "Villa 611,Jumeira Beach Road,Umm Suquiem 1 -",
    "lat": 25.171075,
    "lon": 55.216674
  },
  {
    "name": "DR. HASSAN FAYEK POLYCLINIC(DUBAI)",
    "address": "Office 406 Century 21 Building Abu Baker Siddique Road Muraqabat, Dubai -",
    "lat": 25.080209,
    "lon": 55.283596
  },
  {
    "name": "QAMAR AL MADINA MEDICAL CENTRE(DUBAI)",
    "address": "Office No. 3-1, Al Bonian Building, Latifa Bin Hamdan Street, Al Quoz 3, Dubai -",
    "lat": 25.080209,
    "lon": 55.283596
  },
  {
    "name": "MEDICENTRES POLYCLINIC LLC AL FURJAN BRANCH(DUBAI)",
    "address": "Al Furjan Pavilion Shopping Mall, Al Furjan Villas, Next To Spinneys, Dubai -",
    "lat": 25.025752,
    "lon": 55.152849
  },
  {
    "name": "HEALTHSERVE HOME HEALTHCARE(DUBAI)",
    "address": "331 SULTAN BUSINESS CENTRE, NEXT TO LAMCY PLAZA, OUT METHA, DUBAI, UAE -",
    "lat": 25.184371,
    "lon": 55.259655
  },
  {
    "name": "LIFEWORKS HOLISTIC COUNSELING CENTER LLC(DUBAI)",
    "address": "Villa 1230, Bahwan Villas, Umm Sequim 2, Al Wasl Road, Dubai -",
    "lat": 25.142251,
    "lon": 55.205874
  },
  {
    "name": "MID EAST POLYCLINIC LLC (DUBAI)",
    "address": "M FLOOR, AL OTAIBA BUILDING, NEXT TO AL MAYA        SUPERMARKET AL RIGGA ROAD  DEIRA, DUBAI -",
    "lat": 25.268077,
    "lon": 55.303481
  },
  {
    "name": "BLUE BELL MEDICAL CENTRE(DUBAI)",
    "address": "3RD FLOOR, SUIT NO.306 AL ATTAR BUSINESS CENTRE NEAR ADCB METROSTATION  KARAMA, DUBAI -",
    "lat": 25.244961,
    "lon": 55.304744
  },
  {
    "name": "AL AMAN MEDICAL CENTER(DUBAI)",
    "address": "Office No.301, 3rd Floor, Pearl Building, Baniyas Square, Deira, PO Box 182323 - Dubai, United Arab Emirates",
    "lat": 25.269058,
    "lon": 55.304449
  },
  {
    "name": "SULTAN AL OLAMA MEDICAL CENTER AL FURJAN BRANCH(DUBAI)",
    "address": "Dubai, Al Furjan, Pavilion, Retail No. 8 -",
    "lat": 25.025752,
    "lon": 55.152849
  },
  {
    "name": "SULTAN AL OLAMA MEDICAL CENTER AL BARSHA BRANCH(DUBAI)",
    "address": "Dubai, Al Barsha, Al Asayel Street, 24th Street, Gate No.7, Ground Floor -",
    "lat": 25.109107,
    "lon": 55.184071
  },
  {
    "name": "DUBAI LONDON CLINIC AND SPECIALITY HOSPITAL AL THANYAH BRANCH(DUBAI)",
    "address": "Next to Spinneys, Wadi Al Safa 5, Al Ain Road - Dubai, Unified Arab Emirates",
    "lat": 25.269319,
    "lon": 55.315227
  },
  {
    "name": "DUBAI LONDON CLINIC AND SPECIALITY HOSPITAL VILLA CENTRO BRANCH(DUBAI)",
    "address": "Shop no. HC -1, The Villa Centro Next to Spinneys, Wadi Al, On Dubai � Al Ain Road -",
    "lat": 25.280297,
    "lon": 55.313089
  },
  {
    "name": "MULTICARE MEDICAL CENTRE(DUBAI)",
    "address": "AL KHAIL GATE COMMUNITY CENTRE, NEAR BLUEMART HYPERMARKET, DUBAI -",
    "lat": 25.251973,
    "lon": 55.308995
  },
  {
    "name": "THUMBAY CLINIC DUBAI (DUBAI)",
    "address": "Al Mateena Street, Deira, Dubai, P O Box 48450 -",
    "lat": 25.274682,
    "lon": 55.297268
  },
  {
    "name": "NEW EMIRATES MEDICAL CENTER(DUBAI)",
    "address": "Floor 2, 202 Al Hawai 1 Building, Al Rigga, Muraqabat, PO Box 14529 - Dubai, United Arab Emirates",
    "lat": 25.273141,
    "lon": 55.34773
  },
  {
    "name": "DR. MANSOORI CLINIC (DUBAI)",
    "address": "#103, 1ST FLOOR ZEENAH BLDG, PORT SAEED AREA, DEIRA, DUBAI -",
    "lat": 25.142798,
    "lon": 55.246568
  },
  {
    "name": "AL AZHAR CLINIC JEBEL ALI BRANCH(DUBAI)",
    "address": "PO BOX 69229 NEAR NESTO & PARCO SUPERMARKET, JEBEL ALI INDUSTRIAL AREA 1 -",
    "lat": 25.11341,
    "lon": 55.194504
  },
  {
    "name": "NOOR AL SHEFA CLINIC  BRANCH-AL QUOZ(DUBAI)",
    "address": "AL RUSTAMANI ROAD, AL GHURAIR INT'L EXCHANGE, ROOM NO:107, AL QOUZ IND AREA 3, DUBAI -",
    "lat": 25.161596,
    "lon": 55.234364
  },
  {
    "name": "NOOR AL SHEFA CLINIC 3-JAFZA 3(DUBAI)",
    "address": "JAFZA MALL, JEBEL ALI FREEZONE, P.O BOX 241387, DUBAI -",
    "lat": 24.96341,
    "lon": 55.048799
  },
  {
    "name": "NOOR AL SHEFA CLINIC 4-JAFZA 4(DUBAI)",
    "address": "MEENA RATAILS FZE BUILDING, OPP VILLAGE HYPER MARKET, DUBAI -",
    "lat": 25.337044,
    "lon": 55.401146
  },
  {
    "name": "NOOR AL SHEFA CLINIC-JEBEL ALI MALL(DUBAI)",
    "address": "JEBEL ALI MALL, JEBEL ALI IND AREA 1, DUBAI -",
    "lat": 24.964709,
    "lon": 55.079945
  },
  {
    "name": "BRIGHT MEDICAL CENTER LLC(DUBAI)",
    "address": "AL ROSTAMANI STREET, NEAR ALKHAIL MALL, DUBAI -",
    "lat": 25.080209,
    "lon": 55.283596
  },
  {
    "name": "NEW SANAIYA CLINIC(DUBAI)",
    "address": "PO BOX 3484, Madina Supermarket - SONAPUR Dubai - UAE -",
    "lat": 25.044362,
    "lon": 55.240822
  },
  {
    "name": "RUBY CLINIC(DUBAI)",
    "address": "China Cluster H-6,  International City, Dubai -",
    "lat": 25.116621,
    "lon": 55.141368
  },
  {
    "name": "AL AZHAR CLINIC-DIP(DUBAI)",
    "address": "PO BOX 69229 Behind Ramla Supermarket,  Dubai Investment Park (DIP) Dubai - UAE -",
    "lat": 24.970208,
    "lon": 55.208048
  },
  {
    "name": "NEW SANAIYA CLINIC (BRANCH) DIP 1(DUBAI)",
    "address": "PO BOX 69229, Shop #2 inside AK Mart Dubai Investment Park -1 - Dubai UAE -",
    "lat": 24.970208,
    "lon": 55.208048
  },
  {
    "name": "SEVEN (7) DIMENSIONS MEDICAL CENTER(DUBAI)",
    "address": "Diamond Business Centre -A, Al Barsha South 3 - Arjan, Dubai -",
    "lat": 25.080209,
    "lon": 55.283596
  },
  {
    "name": "RE LEAF MEDICAL CENTRE LLC(DUBAI)",
    "address": "1st Floor, Paons Hypermarket Building, DIP 2, Dubai -",
    "lat": 25.080209,
    "lon": 55.283596
  },
  {
    "name": "PRIME MEDICAL CENTER BARSHA HEIGHTS BRANCH(DUBAI)",
    "address": "Ground Floor, The Onyx Tower 1, The Greens (Al Thanyah Third) Dubai, UAE -",
    "lat": 25.098393,
    "lon": 55.174084
  },
  {
    "name": "ASTER ORTHOPEDICS AND PHYSIOTHERAPY CENTRE(DUBAI)",
    "address": "Hanbal Al Madani, Ground Floor, Al Warqa - 1 Dubai -",
    "lat": 25.179174,
    "lon": 55.247307
  },
  {
    "name": "KINGS MEDICAL CENTER(DUBAI)",
    "address": "Number 4002, 4th Floor, Al Rigga Business Center, Deira, Dubai -",
    "lat": 25.07919,
    "lon": 55.136844
  },
  {
    "name": "LA ESTETICA MEDICAL CENTER LLC(DUBAI)",
    "address": "Um Al Sheif  Al Wasel Rd 1185A , Dubai -",
    "lat": 25.144742,
    "lon": 55.207845
  },
  {
    "name": "RE LEAF MEDICAL CENTRE LLC BRANCH(DUBAI)",
    "address": "Al Qoze Industrial -2,26 Street 43,Khalfan Mohammed Bin Lahej,Ground Floor, Dubai -",
    "lat": 25.080209,
    "lon": 55.283596
  },
  {
    "name": "MULTICARE MEDICAL CENTER LLC BRANCH-QUEUE POINT(DUBAI)",
    "address": "Binghatti Building, Liwaan, Queue Point, Dubai -",
    "lat": 25.234785,
    "lon": 55.436419
  },
  {
    "name": "FAMILY CLINIC (BR OF OXFORD MEDICAL CENTER L.L.C.) (DUBAI BRANCH) (DUBAI)",
    "address": "Al Bada Oasis Bldg, Al Hudaibah Street, Satwa, Dubai -",
    "lat": 25.323504,
    "lon": 55.382599
  },
  {
    "name": "ICARE CLINIC DISCOVERY GARDEN BRANCH(DUBAI)",
    "address": "Building No. 4, Zen Cluster, Discovery Garden, Dubai, UAE -",
    "lat": 25.263366,
    "lon": 55.319401
  },
  {
    "name": "ADVANCED CARE MEDICAL CENTER LLC BRANCH-AL QUOZ 2(DUBAI)",
    "address": "Parson Hypermarket Building, Al Quoz-2, Dubai, UAE -",
    "lat": 25.139286,
    "lon": 55.246122
  },
  {
    "name": "MULTICARE MEDICAL CENTER LLC (BRANCH)-REMRAAM(DUBAI)",
    "address": "Remraam Community Center, Al Hebaih 5th, Dubailand, Dubai -",
    "lat": 25.117652,
    "lon": 55.199293
  },
  {
    "name": "GRAND INFINITY MEDICAL BRANCH(DUBAI)",
    "address": "Shop No. 4, Next to Grand Excelsior Hotel, Muteena Street, Deira, Dubai -",
    "lat": 25.080209,
    "lon": 55.283596
  },
  {
    "name": "NLV MEDICAL CENTER (DUBAI)",
    "address": "Near Box Park, Al Wasl Road, Dubai -",
    "lat": 25.19678,
    "lon": 55.246881
  },
  {
    "name": "PHYSIO PLUS PHYSIOTHERAPY & REHABILITATION CENTER (DUBAI)",
    "address": "Villa 1086, Al Wasl Road ,Umm Suqeim 2, Jumeirah -",
    "lat": 24.418458,
    "lon": 54.452836
  },
  {
    "name": "THE CHILDREN�S MEDICAL CENTRE (DUBAI)",
    "address": "1064 Al Wasl Road Umm Suqeim 2, Dubai, UAE -",
    "lat": 25.1537773,
    "lon": 55.214755134564484
  },
  {
    "name": "ONYX MEDICAL CENTER (DUBAI)",
    "address": "23, 24, Ground Floor, Vincitore Boulevard Arjan, PO Box 12199, Al Barsha South-3 - Dubai, United Arab Emirates",
    "lat": 25.061654,
    "lon": 55.236256
  },
  {
    "name": "GREEN LIFE MEDICAL CLINIC (DUBAI)",
    "address": "Villa 161 Jumeirah 1 Near Mercato Mall Dubai -",
    "lat": 25.080209,
    "lon": 55.283596
  },
  {
    "name": "OXYGEN PLUS MEDICAL CENTRE LLC (DUBAI)",
    "address": "18th floor, Sheraton Grand hotel, World Trade Centre, Dubai -",
    "lat": 25.223108,
    "lon": 55.285827
  },
  {
    "name": "MEDCARE MEDICAL CENTRE AL BARSHA  (BR OF MEDCARE HOSPITAL(L.L.C)) (DUBAI)",
    "address": "Al Barsha-1, 1st Street, Trio Building, Near Grandiose Stores, Dubai -",
    "lat": 25.169152,
    "lon": 55.279614
  },
  {
    "name": "MMC MILLENNIUM MEDICAL CENTER (DUBAI)",
    "address": "Wafi Residence Office Theu, First Floor, DHCC, Dubai -",
    "lat": 25.079108,
    "lon": 55.158437
  },
  {
    "name": "DR. SAI GANESH MEDICAL CENTRE LLC (DUBAI)",
    "address": "Suit No:203,Saphire Tower,Port Saeed,Deira,Dubai -",
    "lat": 25.271003,
    "lon": 55.305133
  },
  {
    "name": "SAI GANESH MEDICAL CENTRE LLC (DUBAI)",
    "address": "Suit No:106, Abdulla Al Fahidi Building, Damascus Street, Quasis, Dubai -",
    "lat": 25.268134,
    "lon": 55.378214
  },
  {
    "name": "SMILE ART (DUBAI)",
    "address": "Suit No:201,Dune Centre,2Nd December Street,Satwa -",
    "lat": 25.075161,
    "lon": 55.137036
  },
  {
    "name": "DR ABDULLA S CLINIC L.L.C (DUBAI)",
    "address": "Shop No.02, Mona Residence, Amman Street, PO Box 236273 - Dubai, United Arab Emirates",
    "lat": 25.285581,
    "lon": 55.406942
  },
  {
    "name": "ABRIS MEDICAL CENTER LLC (DUBAI)",
    "address": "Al Souq Al Kabeer Bulding, Al Fahidi Street, Bur Dubai -",
    "lat": 25.262589,
    "lon": 55.293026
  },
  {
    "name": "HEALTHBAY POLYCLINIC BR OF HEALTH BAY DAY SURGERY CENTER LLC (DUBAI)",
    "address": "Health Bay Women's Care Building, Umm Al Sheif, Al Wasl Road - Dubai, United Arab Emirates",
    "lat": 25.239007,
    "lon": 55.508355
  },
  {
    "name": "SEVEN D MEDICAL CENTRE (BR OF SEVEN DENTAL CENTRE LLC) (DUBAI)",
    "address": "Umm Suqeim Third, Ahmed Khalfan, B527 -",
    "lat": 25.182329,
    "lon": 55.22526
  },
  {
    "name": "HEALTHHUB (BR OF ALFUTTAIM HEALTH CARE SINGLE PERSON COMPANY L.L.C) (AL QUSAIS) (DUBAI)",
    "address": "Manazel Deira Building, Ground Floor, Next To Fortuneplaza Hotel - Qusais 1 -",
    "lat": 25.236466,
    "lon": 55.303533
  },
  {
    "name": "HEALTHHUB NBR ALFUTTAIM HEALTHCARE SINGLE PERSON COMPANY LLC ( AL NAHDA ) (DUBAI)",
    "address": "Essa Saleh Al Gurg, Ground Floor Amman Street, Al Nahda -2 - Dubai,United Arab Emirates",
    "lat": 25.294348,
    "lon": 55.373203
  },
  {
    "name": "HEALTHHUB(BR.ALFUTTAIM HEALTHCARE SINGLE PERSON COMPANY LLC ( FESTIVAL PLAZA ) (DUBAI)",
    "address": "Jebel Ali - 1 festival plaza st Festival Plaza Mall SU244 and SU245 -",
    "lat": 25.223906,
    "lon": 55.359923
  },
  {
    "name": "HEALTHHUB ( AL FUTTAIM STAFF CLINIC FESTIVAL CITY ) (DUBAI)",
    "address": "Basement, Festival City Mall - Dubai, United Arab Emirates",
    "lat": 25.222246,
    "lon": 55.349098
  },
  {
    "name": "MEDCARE MEDICAL CENTRE BARSHA SOUTH (BR OF MEDCARE HOSPITAL (L.L.C) (DUBAI)",
    "address": "AL BARSHA SOUTH MALL, FIRST FLOOR, DUBAI, UNITED ARAB EMIRATES - NEAR UNION COOP, AL BARSHA SOUTH 1",
    "lat": 25.070636,
    "lon": 55.217196
  },
  {
    "name": "HARLEY INTERNATIONAL MEDICAL CLINIC (BRANCH) (DUBAI)",
    "address": "3rd floor, Nashwan Building, Al Mankhool , PO Box 34801 - Dubai, United Arab Emirates",
    "lat": 25.253393,
    "lon": 55.293529
  },
  {
    "name": "HEALTHHUB (BR OF ALFUTTAIM HEALTH CARE SINGLE PERSON COMPANY L.L.C (DSO) (DUBAI)",
    "address": "Shop 6 , Lynx Tower, Dubai Silicon Oasis -",
    "lat": 25.236466,
    "lon": 55.303533
  },
  {
    "name": "ASTER MEDICAL CENTRE SHIEKH ZAYED ROAD (BR OF D M HEALTHCARE (L L C)) (DUBAI)",
    "address": "Al Manal Tower,Trade Center 1, - Dubai",
    "lat": 25.186748,
    "lon": 55.260085
  },
  {
    "name": "ASTER MEDICAL CENTER LIWAN (BR OF D M HEALTHCARE (L L C)) (DUBAI)",
    "address": "Ground Floor, Binghatti Jewels Building, Liwan ,Dubai , UAE -",
    "lat": 25.260017,
    "lon": 55.293807
  },
  {
    "name": "ORTHOCURE MEDICAL CENTER (DUBAI)",
    "address": "2nd floor, Mirdif Avenue Mall, Al Khawaneej Street, P.O Box 300881, Mirdif - Dubai, United Arab Emirates",
    "lat": 25.222213,
    "lon": 55.419531
  },
  {
    "name": "ORTHOCURE SPORTSMED CLINIC (DUBAI)",
    "address": "First Floor, Shop No. 4,5,6, The Mall, PO Box 30081, Jumeirah Street - Dubai, United Arab Emirates",
    "lat": 25.066639,
    "lon": 55.14382
  },
  {
    "name": "DYNAMIC AESTHETIC CLINIC L.L.C (DUBAI)",
    "address": "Unit No: 101, Pinnacle, Sheikh Zayed Road, Al Barsha First - Dubai, United Arab Emirates",
    "lat": 25.11436,
    "lon": 55.190681
  },
  {
    "name": "ALLIED MEDICAL CENTER (DUBAI)",
    "address": "-",
    "lat": 25.2328666,
    "lon": 55.2812012
  },
  {
    "name": "GERMAN HEART CENTRE (DUBAI)",
    "address": "2F Blg39 District8 Dubai Healthcare City, Dubai -",
    "lat": 25.080209,
    "lon": 55.283596
  },
  {
    "name": "ALZAHRA PRIVATE MEDICAL CENTRE (DUBAI)",
    "address": "Sheikh Zayed Road, Dubai -",
    "lat": 25.11436,
    "lon": 55.190681
  },
  {
    "name": "DUBAI LONDON CLINIC -FESTIVAL CITY BRANCH(DUBAI)",
    "address": "Festival City Mall, Festival City Boulevard (opp. IKEA) - Dubai, United Arab Emirates",
    "lat": 25.222246,
    "lon": 55.349098
  },
  {
    "name": "PRIME MEDICAL CENTER LLC-DEIRA(DUBAI)",
    "address": "SHEIKH SAUD AL QASSIMI BLDG, FLOOR # 5, FLAT # 501, SALAHUDDIN ROAD, DUBAI, UAE -",
    "lat": 25.271705,
    "lon": 55.337541
  },
  {
    "name": "SHAMS MOOPEN DENTAL CLINIC (DUBAI)",
    "address": "Zen Building Dubai Marina, shop no 3, Ground Floor -",
    "lat": 25.075161,
    "lon": 55.137036
  },
  {
    "name": "DR.EHAB'S DENTAL CLINIC (DUBAI)",
    "address": "Al Baddaa Area, Street 8A, Villa no: 18, Behind Gunes Center on Al Diyafah Road, Jumeriah 1 -",
    "lat": 24.472182,
    "lon": 54.388044
  },
  {
    "name": "DRS. NICOLAS & ASP CENTRE-MIRDIF BRANCH(DUBAI)",
    "address": "F3, Uptown Mirdif, Dubai, UAE -",
    "lat": 25.107107,
    "lon": 55.202932
  },
  {
    "name": "EUROPEAN UNIVERSAL CLINIC FZ LLC (DUBAI)",
    "address": "Block D, Bin Sina Building, 3rd Floor, Health Care City, Dubai, UAE -",
    "lat": 25.162575,
    "lon": 55.414539
  },
  {
    "name": "LOOKSWOOW DENTAL CLINIC (DUBAI)",
    "address": "The Dubai Mall G260,Ground floor Beside Galleries Lafayette's, Next to Burj Khalifa  Downtown Dubai, -",
    "lat": 25.194481,
    "lon": 55.275589
  },
  {
    "name": "GO DENTAL CLINIC LLC(DUBAI)",
    "address": "Al Wasl Road,Umm Suqueim,Al Manara, Opposite to Choithram -",
    "lat": 25.14922,
    "lon": 55.211776
  },
  {
    "name": "PARK DENTAL CENTER (DUBAI)",
    "address": "Flat # 106, Al Mardoof Bldg,  Al Safa, Sheikh Zayed Road, P.O Box 57111 - Dubai, United Arab Emirates",
    "lat": 25.291443,
    "lon": 55.342776
  },
  {
    "name": "DRS. NICOLAS & ASP CENTRE-SOUK AL MANZIL DOWN TOWN(DUBAI)",
    "address": "Souk Al Manzil in Downtown Dubai, Ground Floor, Sheikh Mohamad Bin Rashid Boulevard next to Al Manzel Hotel Main Entrance -",
    "lat": 25.268137,
    "lon": 55.300518
  },
  {
    "name": "BRIGHT SMILE DENTAL ORTHODONIC (DUBAI)",
    "address": "Office 105 Al Shafar Building 7, Al Wasl Road, Al Badaa - Dubai, United Arab Emirates",
    "lat": 25.080209,
    "lon": 55.283596
  },
  {
    "name": "TOOTHSMITHS DENTAL CENTRE (DUBAI)",
    "address": "-",
    "lat": 25.200857,
    "lon": 55.263569
  },
  {
    "name": "MANAL HARB MEDICAL CENTER LLC(DUBAI)",
    "address": "Office 3001, 30TH Floor, AL Attar Tower, Financial Center Street, Beside Gevora Building - Dubai, United Arab Emirates",
    "lat": 25.212802,
    "lon": 55.277445
  },
  {
    "name": "NAGEM DENTAL CENTER (DUBAI)",
    "address": "CBD, Building E-05, Shop 01, Opposite Of Subway, International City - Dubai, United Arab Emirates",
    "lat": 25.116177,
    "lon": 55.203894
  },
  {
    "name": "RONA RABAH DENTAL CLINIC LLC (DUBAI)",
    "address": "OFFICE 111, BURLINGTON TOWER, BUSINESS BAY DUBAI -",
    "lat": 25.080209,
    "lon": 55.283596
  },
  {
    "name": "SMILE SPA DENTAL CLINIC (DUBAI)",
    "address": "105, Corner City Building, Nad Alhammar,Near To Dubai Festival City -",
    "lat": 25.217241,
    "lon": 55.261005
  },
  {
    "name": "NOA DENTAL CLINIC (DUBAI)",
    "address": "Unit 109, Mezzanine Floor, Al Hana Center, Mankhool Road, Al Jafiliya, PO Box 32699 - Dubai, United Arab",
    "lat": 25.217241,
    "lon": 55.261005
  },
  {
    "name": "LOTUS DENTAL CLINIC LLC (DUBAI)",
    "address": "106 Platinum Business Center, Baghdad Street, Al Nahda 2 -",
    "lat": 25.287633,
    "lon": 55.36904
  },
  {
    "name": "PROVIDENCE DENTAL CENTRE (DUBAI)",
    "address": "Suite 115, Belshalat Building Corner of 6A Street and Kuwait Road, Karama, Dubai -",
    "lat": 25.244961,
    "lon": 55.304744
  },
  {
    "name": "UNIQUE SMILE CLINIC LLC (DUBAI)",
    "address": "Office 902, Al Serkal Building, Port Saeed, Deira, Dubai, UAE -",
    "lat": 25.217854,
    "lon": 55.261246
  },
  {
    "name": "ORIS DENTAL CENTER MIRDIF (DUBAI)",
    "address": "4003, Al Barajeel Complex, Street # 47, Algeria Street, Near Uptown Mirdif � Dubai, UAE -",
    "lat": 25.2440201,
    "lon": 55.4294415
  },
  {
    "name": "VIENNA DENTAL CLINIC FZ-LLC(DUBAI)",
    "address": "P1, SHATHA TOWER, Mezzanine Floor, Al Falak Street, PO Box 502416, DUBAI MEDIA CITY - Dubai, United Arab Emirates",
    "lat": 25.101106,
    "lon": 55.163084
  },
  {
    "name": "HELLENIC DENTAL CLINIC LLC (DUBAI)",
    "address": "Villa G4U1, Al Wasl Road, Jumeirah 1, PO Box 21094 - Dubai, United Arab Emirates",
    "lat": 25.080209,
    "lon": 55.283596
  },
  {
    "name": "ROYAL DENTISTS CENTER DMCC(DUBAI)",
    "address": "1804 Fortune Tower Al Thanyah Fifth, Jumeirah Lakes Towers, Dubai, UAE -",
    "lat": 25.230742,
    "lon": 55.388423
  },
  {
    "name": "CREATIVE SMILE DENTAL SURGERY RIGGA BRANCH(DUBAI)",
    "address": "M01, E -Block , Fatima Al Owais  Building , Al Rigga Road, Dubai -",
    "lat": 25.080209,
    "lon": 55.283596
  },
  {
    "name": "BASMAT AL BAYAN MEDICAL CENTER(DUBAI)",
    "address": "1st Floor, Jumairah 1, Jumairah Center, Near Domino's Pizza, Dubai, UAE -",
    "lat": 25.00424,
    "lon": 55.154065
  },
  {
    "name": "REVIVE DENTAL CLINIC (DUBAI)",
    "address": "Ibn Sina building #27, Block-C, Office number 303, DHCC, Dubai -",
    "lat": 25.200857,
    "lon": 55.263569
  },
  {
    "name": "BISSAN DENTAL CENTER LLC (DUBAI)",
    "address": "Office 1103, Tameem House, Tecom� Al Barsha Heights POBOX 392488, Dubai -",
    "lat": 25.211881,
    "lon": 55.272497
  },
  {
    "name": "AXIS DENTAL CLINIC LLC (DUBAI)",
    "address": "NAEMA ALI BUAMIM BLD, 4th Floor, 405 2ND DECEMBER STREET, AL HUDAIBA, SATWA, DUBAI -",
    "lat": 25.080209,
    "lon": 55.283596
  },
  {
    "name": "FAMILY DENTAL CLINIC - FZE (DUBAI)",
    "address": "-",
    "lat": 25.120222,
    "lon": 55.397666
  },
  {
    "name": "SEVEN DENTAL CENTRE LLC (DUBAI)",
    "address": "Jumeirah 3 Arenco, 506B -",
    "lat": 25.182329,
    "lon": 55.22526
  },
  {
    "name": "PREMIER DIAGNOSTIC CENTER L.L.C (DUBAI)",
    "address": "AL MUTEENA BUILDING, GROUND FLOOR, SALAHUDDIN STREET, DEIRA, DUBAI, UAE -",
    "lat": 25.276993,
    "lon": 55.302572
  },
  {
    "name": "AL ETIHAD DIAGNOSTIC CENTRE (DUBAI)",
    "address": "Near Al Noor Clinic,At the Intersection between Al Wasl & Al Manara Roads,Al Wasl Road, -",
    "lat": 25.225056,
    "lon": 55.265804
  },
  {
    "name": "UNILABS MIDDLE EAST LLC (DUBAI)",
    "address": "OpSheikh Hamdan Award Complex,OPP Of Union House, Near Dubai Dry Docks,  Jumeirah 1, -",
    "lat": 25.116177,
    "lon": 55.203894
  },
  {
    "name": "YORK DIAGNOSTIC LABOR JLT-(DUBAI)",
    "address": "OFFICE 509 - 510 Indigo Tower Cluster D Jumeirah Lakes Towers -",
    "lat": 25.072313,
    "lon": 55.143136
  },
  {
    "name": "MEGA SCAN CENTRE (DUBAI)",
    "address": "Mezzanine Floor, Atrium Centre,Khaled Bin Al Waleed Street, Bur Dubai -",
    "lat": 25.262499,
    "lon": 55.296249
  },
  {
    "name": "AIRIS IMAGING AND DIAGNOSTIC CENTRE (DUBAI)",
    "address": "Al Nahda 1, Amman Stret,Qusais -",
    "lat": 24.418479,
    "lon": 54.453151
  },
  {
    "name": "CPS CLINICAL PATHOLOGY SERVICES (DUBAI)",
    "address": "Al Qouz, Umm Suqeim Road Dubai -",
    "lat": 25.133178,
    "lon": 55.187803
  },
  {
    "name": "ADVANCED DIAGNOSTIC CENTER (DUBAI)",
    "address": "Hamarain Shopping Center ,Deira -",
    "lat": 25.267925,
    "lon": 55.33015
  },
  {
    "name": "ALPHA MEDICAL LABORATORY(DUBAI)",
    "address": "Al Ameri Tower, 103, Barsha Heights, Dubai -",
    "lat": 25.098393,
    "lon": 55.174084
  },
  {
    "name": "RNS DIAGNOSTICS & IMAGING (DUBAI)",
    "address": "3 AL SHAYA BUILDING,  AL ITTIHAD RD, PORT SAEED, DEIRA, DUBAI -",
    "lat": 25.247014,
    "lon": 55.32358
  },
  {
    "name": "STAR METROPOLIS CLINICAL LABORATORIES(DUBAI)",
    "address": "Office 802-803, 8th Floor, Al Mussalla Towers, Khalid Bin Al Waleed Road, Bur Dubai, Dubai -",
    "lat": 25.262499,
    "lon": 55.296249
  },
  {
    "name": "RESONANCE IMAGING AND DIAGNOSTIC CENTER(DUBAI)",
    "address": "Villa 1204, Al Wasl Road, Umm Suqeim 2, Dubai -",
    "lat": 25.1437528,
    "lon": 55.207339
  },
  {
    "name": "BIOHEALTH LABS (DUBAI)",
    "address": "Shaikh Rashid Building - Off No 107 - Umm Hurair Rd - Dubai -",
    "lat": 25.255618,
    "lon": 55.324226
  },
  {
    "name": "MAGRABI - JUMEIRA VILLAGE CENTRE (DUBAI)",
    "address": "Shop # 1,Jumeira, Dubai, UAE -",
    "lat": 25.054137,
    "lon": 55.206741
  },
  {
    "name": "MAGRABI - DUBAI MALL (DUBAI)",
    "address": "Dubai Mall, Shop # GF 197 -",
    "lat": 25.076194,
    "lon": 55.139425
  },
  {
    "name": "MAGRABI - DUBAI MARINA MALL (DUBAI)",
    "address": "Dubai Marina Mall, Shop # GF 006 -",
    "lat": 25.076194,
    "lon": 55.139425
  },
  {
    "name": "ASTER OPTICS  (DUBAI)",
    "address": "Bait al Waleed Building, Kalid Bin Waleed Road, Near to Al Fahidi Metro Station, Burdubai -",
    "lat": 25.25964,
    "lon": 55.287652
  },
  {
    "name": "AL JABER OPTICAL CENTRE AL GHURAIR(DUBAI)",
    "address": "Shop No. G28, Ground Floor AL GHURAIR DUBAI UAE -",
    "lat": 25.21489,
    "lon": 55.278805
  },
  {
    "name": "AL JABER OPTICAL CENTRE DCC (DUBAI)",
    "address": "Deira City Center Unit No. B68, Second Floor -",
    "lat": 25.21489,
    "lon": 55.278805
  },
  {
    "name": "AL JABER OPTICAL-IBN BATTUTA  (DUBAI)",
    "address": "Ibn Battuta Shop No. 55, Tunisia Court, Dubai -",
    "lat": 25.080209,
    "lon": 55.283596
  },
  {
    "name": "DUBAI OPTICAL-CITY CENTRE(DUBAI)",
    "address": "Unit D7, Lower Ground, Near Jacky's Electronics, City Centre, Deira -",
    "lat": 25.295151,
    "lon": 55.315706
  },
  {
    "name": "ASTER OPTICS 1 (BR OF ASTER OPTICALS LLC)(DUBAI)",
    "address": "The Ribbon Building 2, Al Hebiah first , Plot 94- 0, Motor City, Dubai -",
    "lat": 25.006135,
    "lon": 55.250406
  },
  {
    "name": "ASTER OPTICS 2 (BR OF ASTER OPTICALS LLC)(DUBAI)",
    "address": "Shop No4, Al Manal Tower, Next to Crown Plaza Hotel, Sheikh Zayed Road, Dubai -",
    "lat": 25.11436,
    "lon": 55.190681
  },
  {
    "name": "RIVOLI EYE ZONE-ARABIAN CENTRE(DUBAI)",
    "address": "Gf, Next To Rivoli, Al Mizhar First, P.O. Box-31456Arabian Center, Dubai -",
    "lat": 25.254632,
    "lon": 55.30846
  },
  {
    "name": "RIVOLI EYE ZONE-MIRDIF CITY CENTRE(DUBAI)",
    "address": "Mirdiff City Cenre, Sheikh Mohammed Bin Zayed Road (E311 Road) Dubai -",
    "lat": 25.080209,
    "lon": 55.283596
  },
  {
    "name": "RIVOLI EYE ZONE BR OF EXCEL ENTERPRISES LLC - FESTIVAL PLAZA MALL (DUBAI)",
    "address": "SU116, Ground Floor, Near Ikea, Entrance 2, Festival Plaza Mall -",
    "lat": 25.075161,
    "lon": 55.137036
  },
  {
    "name": "RIVOLI EYE ZONE BR OF EXCEL ENTERPRISES LLC MERCATO (DUBAI)",
    "address": "First floor, Mercato Mall, Jumeirah beach Road, Jumeira-1, Dubai -",
    "lat": 25.206496,
    "lon": 55.243866
  },
  {
    "name": "TAMAM OPTICAL LLC (DUBAI)",
    "address": "Al Qusais - 2, Al Nahda Street 155, Belresheed Bldg-1, Shop 1 -",
    "lat": 25.27267,
    "lon": 55.371501
  },
  {
    "name": "RIVOLI EYE ZONE BRANCH OF EXCEL ENTERPRISES LLC - DUBAI HILLS (DUBAI)",
    "address": "FF295, First Floor, Near Montblanc, Entrance 2, Al Khail Road -",
    "lat": 25.191399,
    "lon": 55.282881
  },
  {
    "name": "CRYSTAL VISION OPTICAL LLC (DUBAI)",
    "address": "-",
    "lat": 25.145949,
    "lon": 55.228728
  },
  {
    "name": "DUBAI OPTICAL - DUBAI HILLS MALL (DUBAI)",
    "address": "GF329, Dubai Hills Mall near P1-L Storm Coaster Entrance -",
    "lat": 25.101815,
    "lon": 55.23895
  },
  {
    "name": "OPTI VISION - DUBAI OUTLET MALL (DUBAI)",
    "address": "F119, First Floor near food court, Dubai Outlet Mall, Dubai -",
    "lat": 25.072756,
    "lon": 55.400934
  },
  {
    "name": "MODERN MEDI PRIME PHARMACY (DUBAI)",
    "address": "IBRI House, Sheikh Zayed Road, Adjacent to Nissan Showroom, Dubai -",
    "lat": 25.11436,
    "lon": 55.190681
  },
  {
    "name": "NEW MEDI PRIME PHARMACY (DUBAI)",
    "address": "3rd Floor, Burjuman Center, Khalid Bin Al Waleed Road, BUR DUBAI, DUBAI, UAE -",
    "lat": 25.218623,
    "lon": 55.284415
  },
  {
    "name": "IQRA PHARMACY-MOOPENS (DUBAI)",
    "address": "OPP: Al Futtaim Mosque, Naif Road -",
    "lat": 25.269191,
    "lon": 55.304954
  },
  {
    "name": "IBN AL HAITHAM PHARMACY (DUBAI)",
    "address": "opp: Dubai Central Post office -",
    "lat": 25.187842,
    "lon": 55.284698
  },
  {
    "name": "AL ANBER PHARMACY (DUBAI)",
    "address": "Next to Mussalla tower, Bank street , Burdubai -",
    "lat": 25.257763,
    "lon": 55.298992
  },
  {
    "name": "SONDOS PHARMACY (DUBAI)",
    "address": "SHEIKH SANA BLDG, NEAR DUNES BLDG, AL DIYAFAH ROAD, SATWA, DUBAI -",
    "lat": 25.231027,
    "lon": 55.268243
  },
  {
    "name": "JUMEIRAH PHARMACY (DUBAI)",
    "address": "AL DIYAFAH STREET, SATWA -",
    "lat": 25.231242,
    "lon": 55.285562
  },
  {
    "name": "SWISS PHARMACY L.L.C (DUBAI)",
    "address": "SHEIKH ZAYED ROAD, DUBAI -",
    "lat": 25.11436,
    "lon": 55.190681
  },
  {
    "name": "TIMES SQUARE PHARMACY (DUBAI)",
    "address": "TIMES SQUARE CENTER, SHEIKH ZAYED ROAD, DUBAI -",
    "lat": 25.11436,
    "lon": 55.190681
  },
  {
    "name": "NAKHEEL PHARMACY (DUBAI)",
    "address": "BUILDING NO: 26, DUBAI HEALTHCARE CITY -",
    "lat": 25.232129,
    "lon": 55.320123
  },
  {
    "name": "MARINA MIRDIF PHARMACY (DUBAI)",
    "address": "Located in Spinneys, Community Center Mirdif -",
    "lat": 25.214376,
    "lon": 55.428869
  },
  {
    "name": "MARINA PHARMACY PALM FZCO (DUBAI)",
    "address": "LOCATED IN PALM JUMERIAH -",
    "lat": 25.112558,
    "lon": 55.173814
  },
  {
    "name": "ZABEEL PHARMACY (DUBAI)",
    "address": "Zabeel Bldg. Zabeel Road. Dubai -",
    "lat": 25.216977,
    "lon": 55.278
  },
  {
    "name": "AL AWEER SOCIETY PHARMACY (DUBAI)",
    "address": "Union Co-op, Fruit & Veg. Market, Dubai -",
    "lat": 25.164267,
    "lon": 55.383247
  },
  {
    "name": "DRAGON PHARMACY (DUBAI)",
    "address": "Dragon Mart Dubai Ban  05 & 06 -",
    "lat": 25.174384,
    "lon": 55.419851
  },
  {
    "name": "DRAGON MART PHARMACY (DUBAI)",
    "address": "Dragon Mart Dubai -",
    "lat": 25.174384,
    "lon": 55.419851
  },
  {
    "name": "BEAUTY PHARMACY (DUBAI)",
    "address": "Al Barah Building, Baraha Deira -",
    "lat": 25.283364,
    "lon": 55.324447
  },
  {
    "name": "SPECIAL CARE PHARMACY (DUBAI)",
    "address": "-",
    "lat": 25.113087,
    "lon": 55.372377
  },
  {
    "name": "RASHID PHARMACY -MOOPENS (DUBAI)",
    "address": "DUBAI -",
    "lat": 25.226264,
    "lon": 55.385474
  },
  {
    "name": "MEDICINE SHOPPE MICRO (DUBAI)",
    "address": "DUBAI -",
    "lat": 25.148288,
    "lon": 55.197552
  },
  {
    "name": "SUPERCARE PHARMACY-SAFA (DUBAI)",
    "address": "Shop#5, Block#4, Al Ferdous Building, Al Wasl Road, DUBAI -",
    "lat": 25.17879,
    "lon": 55.23435
  },
  {
    "name": "SUPERCARE PHARMACY UMM SUQEIM (DUBAI)",
    "address": "DUBAI -",
    "lat": 25.191187,
    "lon": 55.281735
  },
  {
    "name": "SUPERCARE PHARMACY FESTIVAL CITY (DUBAI)",
    "address": "DUBAI -",
    "lat": 25.191187,
    "lon": 55.281735
  },
  {
    "name": "NEW SUPERCARE PHARMACY MEDIA CITY(DUBAI)",
    "address": "DUBAI -",
    "lat": 25.191187,
    "lon": 55.281735
  },
  {
    "name": "SUPERCARE PHARMACY ASWAAQ UMM SUQ(DUBAI)",
    "address": "DUBAI -",
    "lat": 25.191187,
    "lon": 55.281735
  },
  {
    "name": "SUPERCARE PHARMACY MIRDIFF (DUBAI)",
    "address": "DUBAI -",
    "lat": 25.191187,
    "lon": 55.281735
  },
  {
    "name": "ARABELLA PHARMACY (DUBAI)",
    "address": "DUBAI -",
    "lat": 25.1684086,
    "lon": 55.2283884
  },
  {
    "name": "THUMBAY PHARMACY 11 (DUBAI)",
    "address": "AL KHALEEJ ROAD, AL KHALEEJA STREET, INSIDE DUBAI HOSPITAL BLDG, AL BARAHA -",
    "lat": 25.283364,
    "lon": 55.324447
  },
  {
    "name": "THUMBAY PHARMACY 3 (DUBAI)",
    "address": "MOHAMED SADIQ HUSSAIN BLDG., AL FAHIDI STREET, BUR DUBAI -",
    "lat": 25.237949,
    "lon": 55.279722
  },
  {
    "name": "WE CARE PHARMACY (DUBAI)",
    "address": "DUBAI -",
    "lat": 25.113087,
    "lon": 55.372377
  },
  {
    "name": "MEDICOM -AL PHARABI PHARAMCY (DUBAI)",
    "address": "DUBAI -",
    "lat": 25.26524,
    "lon": 55.319361
  },
  {
    "name": "MEDICOM -1 AL JAMEYA PHARMACY (DUBAI)",
    "address": "DUBAI -",
    "lat": 25.18985,
    "lon": 55.260616
  },
  {
    "name": "MEDICOM - 2 AL WASL PHARMACY (DUBAI)",
    "address": "DUBAI -",
    "lat": 25.296777,
    "lon": 55.382338
  },
  {
    "name": "MEDICOM -10 AL SABA PHARMACY (DUBAI)",
    "address": "DUBAI -",
    "lat": 25.146279,
    "lon": 55.199872
  },
  {
    "name": "ASTER PHARMACY TCOM (DUBAI)",
    "address": "DUBAI -",
    "lat": 24.998108,
    "lon": 55.175698
  },
  {
    "name": "AL MANKHOOL PHARMACY LLC (DUBAI)",
    "address": "Trio 3, 19 A Street, PO Box 111751 Al Nahda 2 - Dubai, United Arab Emirates",
    "lat": 25.124984,
    "lon": 55.393556
  },
  {
    "name": "SUPERCARE PHARMACY JLT (DUBAI)",
    "address": "DUBAI -",
    "lat": 25.191187,
    "lon": 55.281735
  },
  {
    "name": "UNICARE PHARMACY LLC (DUBAI)",
    "address": "Ground Floor, Near Emirates NBD, Burjuman Centre, Bur Dubai, Dubai -",
    "lat": 25.218623,
    "lon": 55.284415
  },
  {
    "name": "GREEN MOTOR COMMUNITY PHARMACY(DUBAI)",
    "address": "Green Community Motor City -",
    "lat": 25.041181,
    "lon": 55.235313
  },
  {
    "name": "EURO HEALTH PHARMACY LLC (DUBAI)",
    "address": "Oud Metha Rd., KM Trdg., Dubai -",
    "lat": 25.080209,
    "lon": 55.283596
  },
  {
    "name": "SUPERCARE PHARMACY SHEIKH ZAYD RD (DUBAI)",
    "address": "SHEIKH ZAYED ROAD, OASIS TOWER -",
    "lat": 25.191187,
    "lon": 55.281735
  },
  {
    "name": "KIMS PHARMACY LLC (DUBAI)",
    "address": "Next to Abu Baker Al Siddique Metro Station,  Al Muraqqabat, Deira, -",
    "lat": 25.263632,
    "lon": 55.323751
  },
  {
    "name": "PHARMALUX  PHARMACY LLC (DUBAI)",
    "address": "Next to Dubai Marina Mall , Dubai Marina, -",
    "lat": 25.197403,
    "lon": 55.276767
  },
  {
    "name": "NEW MANKHOOL PHARMACY (DUBAI)",
    "address": "Next to Al Karama Metro Station's Exit #2, Sheikh Khalifa Bin Zayed Street, PO Box 127815Al Mankhool - Dubai, United Arab Emirates",
    "lat": 25.266963,
    "lon": 55.315165
  },
  {
    "name": "EMIRATES PHARMACY LLC-MARINA(DUBAI)",
    "address": "Botanica Tower, Dubai Marina -",
    "lat": 25.075161,
    "lon": 55.137036
  },
  {
    "name": "EMIRATES HOSPITAL PHARMACY (DUBAI)",
    "address": "Jumeirah 2, Jumeirah Beach Road -",
    "lat": 25.206496,
    "lon": 55.243866
  },
  {
    "name": "NEW ASTER PHARMACY JLT  (DUBAI)",
    "address": "Shop No. G011-B, Red Diamond Building JLT Dubai -",
    "lat": 25.27069,
    "lon": 55.374295
  },
  {
    "name": "UNICARE STAR PHARMACY LLC (DUBAI)",
    "address": "Near Baqer Mohebi, Mankhool Road, Satwa, Dubai -",
    "lat": 25.080209,
    "lon": 55.283596
  },
  {
    "name": "AL SHIHHE PHARMACY (DUBAI)",
    "address": "Near to J- Mart Supermarket, Rasheed Road, Deira -",
    "lat": 25.28036,
    "lon": 55.30524
  },
  {
    "name": "ASTER PHARMACY 1 (DUBAI)",
    "address": "Oud Metha Road, Bank Street , Burdubai -",
    "lat": 24.998108,
    "lon": 55.175698
  },
  {
    "name": "AL FARAH PHARMACY (DUBAI)",
    "address": "Al Nadha 1 Dubai, near to MNC hospital. -",
    "lat": 25.003319,
    "lon": 55.251738
  },
  {
    "name": "FAITH PHARMACY (DUBAI)",
    "address": "Next to Al futtaim Mosque Naif Road Deira, Dubai -",
    "lat": 25.080209,
    "lon": 55.283596
  },
  {
    "name": "QALB AL IMAN PHARMACY LLC (DUBAI)",
    "address": "Naif Road, Deira, -",
    "lat": 25.28036,
    "lon": 55.30524
  },
  {
    "name": "AL RAFAH PHARMACY (DUBAI)",
    "address": "Al Naboodah Blg,Near Al Ghubaiba Bus Station -",
    "lat": 25.405462,
    "lon": 55.44193
  },
  {
    "name": "COUNTRY PHARMACY CO LLC (DUBAI)",
    "address": "Mohebi Aviation Bldg, Near Astoria Hotel,Al Fahidi Street,Bur Dubai -",
    "lat": 25.262589,
    "lon": 55.293026
  },
  {
    "name": "SUPERCARE PHARMACY AL THANYA (DUBAI)",
    "address": "NEAR WAITROSE SUPERMARKET -",
    "lat": 25.28106,
    "lon": 55.333071
  },
  {
    "name": "NICE LIFE PHARMACY  (DUBAI)",
    "address": "Block A, Al Hudaiba Awards Bldg, Next to Holiday Inn Express Hotel,2nd of December Street,Bur Dubai, -",
    "lat": 25.238456,
    "lon": 55.273616
  },
  {
    "name": "AL MANARA GARDEN PHARMACY (DUBAI)",
    "address": "Sheikh Zayed Rd, Tunisia Court,  Ibn Batutta Mall Dubai -",
    "lat": 25.080209,
    "lon": 55.283596
  },
  {
    "name": "AL MANARA PH HEALTH CARE CITY (DUBAI)",
    "address": "Healthcare City Al Razi st. opposite Wafi City and beside City Hospital Dubai -",
    "lat": 25.041828,
    "lon": 55.251455
  },
  {
    "name": "NEW AL MANARA PHARMACY (DUBAI)",
    "address": "Ground Floor, Business Central Towers, Dubai -",
    "lat": 25.100326,
    "lon": 55.169328
  },
  {
    "name": "AL MANARA PHARMACY SUNSET MALL (DUBAI)",
    "address": "Sunset Mall, Jumeirah Road opposite EPPCO Station, between Dubai offshore sailing club and Jumeirah -",
    "lat": 25.110623,
    "lon": 55.141322
  },
  {
    "name": "NEW MARK PHARMACY JLT (DUBAI)",
    "address": "JLT area, Cluster-T, Fortune Executive Tower, near to marina metro station. Dubai -",
    "lat": 25.068688,
    "lon": 55.138896
  },
  {
    "name": "ATLAS STAR PHARMACY (DUBAI)",
    "address": "Sundos Al Nahda Bldg,Ground Floor,Amman Street,Al Nahda -",
    "lat": 25.294348,
    "lon": 55.373203
  },
  {
    "name": "ASTER PHARMACY 3 (DUBAI)",
    "address": "G32, Ground Floor, Dubai Outlet Mall, Dubai, UAE -",
    "lat": 25.197403,
    "lon": 55.276767
  },
  {
    "name": "MANCHESTER COMMUNITY PHARAMCY (DUBAI)",
    "address": "Manchester tower  Dubai marina -",
    "lat": 25.075161,
    "lon": 55.137036
  },
  {
    "name": "MOTHERCARE PHARMACY (DUBAI)",
    "address": "PAK ROSE REST., HOR AL ANZ STREET, DUBAI -",
    "lat": 25.280417,
    "lon": 55.333186
  },
  {
    "name": "MOTHER PHARMACY (DUBAI)",
    "address": "ABU BAKER AL SIDDIQUE RD, HOR AL ANZ -",
    "lat": 25.278627,
    "lon": 55.32703
  },
  {
    "name": "AL TADAWI PHARMACY (DUBAI)",
    "address": "Al Masaood Tower, Airport Road, Port Saeed, Deira, Dubai. -",
    "lat": 25.255944,
    "lon": 55.337058
  },
  {
    "name": "MARINA DCC PHARMACY (DUBAI)",
    "address": "Deira City Center Metro Station, Dubai UAE -",
    "lat": 25.250877,
    "lon": 55.33508
  },
  {
    "name": "MARINA BURJ PHARMACY (DUBAI)",
    "address": "Burj Khalifa Metro Station, Dubai, UAE -",
    "lat": 25.202019,
    "lon": 55.270066
  },
  {
    "name": "MARSA COMMUNITY PHARMACY (DUBAI)",
    "address": "Diamond 4 building -Dubai Marina -Dubai -",
    "lat": 25.075161,
    "lon": 55.137036
  },
  {
    "name": "AL KAUSAR PHARMACY  LLC (DUBAI)",
    "address": "Next to palm beach hotel,Khalid bin al waleed road,bur dubai. -",
    "lat": 25.259278,
    "lon": 55.287403
  },
  {
    "name": "MADINAT AL KAUSAR PHARMACY (DUBAI)",
    "address": "Near sharaf DG metro station,Sheikh zayed road,al barsha -",
    "lat": 25.11436,
    "lon": 55.190681
  },
  {
    "name": "BAIT AL SHIFA NEW PHARMACY (DUBAI)",
    "address": "Opp. Abu Hail Metro Station, Hor Al Anz ,Dubai, UAE -",
    "lat": 25.202019,
    "lon": 55.270066
  },
  {
    "name": "NEURO SPINAL  HOSPITAL PHARMACY (DUBAI)",
    "address": "Umm Suqeim street, Al Barsha, Al Barsha South, PO Box 71444, Dubai Science Park - Dubai, United Arab Emirates",
    "lat": 25.122073,
    "lon": 55.202169
  },
  {
    "name": "SANDS COMMUNITY PHARMACY (DUBAI)",
    "address": "Shop No. 6 Emirates Crown Tower 1 Plot # 42 (392-186) Marsa Dubai, U.A.E. -",
    "lat": 25.099132,
    "lon": 55.177757
  },
  {
    "name": "ZULEKHA HOSPITAL  PHARMACY (DUBAI)",
    "address": "Opp Al Nahda Park - 204th Rd - Dubai -",
    "lat": 25.080209,
    "lon": 55.283596
  },
  {
    "name": "SHEFAA AL MADEENA PHARMACY LLC (DUBAI)",
    "address": "Shop-1,Al Gadheer Gas Station Al Manara , Al wasl Road -",
    "lat": 25.225056,
    "lon": 55.265804
  },
  {
    "name": "XIE HE PHARMACY  LLC (DUBAI)",
    "address": "A12 Building, China Cluster, International City, Dubai, U.A.E, Adjacent to Dragon Mart. -",
    "lat": 25.168192,
    "lon": 55.414473
  },
  {
    "name": "ASTER PHARMACY 118 (DUBAI)",
    "address": "OBS Building,Ground Floor, Shop No.2, Near to NMC Hospital, Amman Road,Al Nahda -",
    "lat": 25.294348,
    "lon": 55.373203
  },
  {
    "name": "BAIT AL MAQDES PHARMACY LLC (DUBAI)",
    "address": "Arabilla Bldg. 15C St. Hor Al Anz East, Dubai, UAE PO Box: 96976- Deira, Dubai, UAE -",
    "lat": 25.276847,
    "lon": 55.331748
  },
  {
    "name": "AL MANARA PHARMACY REMAL MALL(DUBAI)",
    "address": "AL BARARI,DUBAI -",
    "lat": 25.268063,
    "lon": 55.301156
  },
  {
    "name": "AL MANARA DUBAI SILICON OASIS (DUBAI)",
    "address": "DUBAI SILICON OASIS -",
    "lat": 25.152951,
    "lon": 55.218449
  },
  {
    "name": "AL MANARA AL RAEDA PHARMACY (DUBAI)",
    "address": "AL GHURAIR CENTER LCC. AL RIGGA STREET,DUBAI -",
    "lat": 25.266198,
    "lon": 55.318427
  },
  {
    "name": "JUMEIRAH BETTER LIFE PHARMACY (DUBAI)",
    "address": "NO.4 BUILDING M1, AMSA JUMEIRAH VILLAGE CIRCLE, DUBAI. -",
    "lat": 25.054137,
    "lon": 55.206741
  },
  {
    "name": "ASTER PHARMACY 113 (DUBAI)",
    "address": "Mirdif Mall, Uptown Mirdif,Near to Medcare clinic, Mirdif -",
    "lat": 25.222401,
    "lon": 55.441625
  },
  {
    "name": "WECARE ERX PHARMACY LLC (DUBAI)",
    "address": "Hamsah �A Building, Ground Floor, Near Ansar Gallery, Khalid Bin Waleed Street, Al Karama, Dubai, -",
    "lat": 25.25964,
    "lon": 55.287652
  },
  {
    "name": "PRIME HOSPITAL PHARMACY  LLC (DUBAI)",
    "address": "Prime Hospital Pharmacy, Casablanca Street, AL Garhoud, Dubai. -",
    "lat": 25.354718,
    "lon": 55.403287
  },
  {
    "name": "NMC SPECIALITY  HOSPITAL PHARMACY (DUBAI)",
    "address": "Amman Street, AL-NAHDA-2,UAE -",
    "lat": 25.294348,
    "lon": 55.373203
  },
  {
    "name": "ASTER PHARMACY 123 (DUBAI)",
    "address": "Shop No3, Al Ghurair Real Estate Building, Al Muteena Street, Deira, Near Dubai Palm Hotel -",
    "lat": 25.243835,
    "lon": 55.303961
  },
  {
    "name": "AL ZAHRA HOSPITAL PHARMACY (DUBAI)",
    "address": "Along Sheikh Zayed Road,  Al Barsha 1, -",
    "lat": 25.11436,
    "lon": 55.190681
  },
  {
    "name": "LULU CENTRE PHARMACY LLC (DUBAI)",
    "address": "Lulu Hypermarket, Al Qusais, Dubai. -",
    "lat": 25.258541,
    "lon": 55.400035
  },
  {
    "name": "BOOTS MARINA MALL PHARMACY  (DUBAI)",
    "address": "Dubai Marina Mall, Unit # PM007A Promenade Level, SZR, Dubai -",
    "lat": 25.080209,
    "lon": 55.283596
  },
  {
    "name": "BOOTS AL GHADEER PHARMACY (DUBAI)",
    "address": "Ghadeer Tower, Showroom No. 1, Ground Flr, Plot 336-209, SZR, Dubai -",
    "lat": 25.080209,
    "lon": 55.283596
  },
  {
    "name": "BOOTS PHAR JUMEIRAH-VILLAGE MALL(DUBAI)",
    "address": "The Village Mall, Jumeirah Road, Dubai -",
    "lat": 25.110623,
    "lon": 55.141322
  },
  {
    "name": "BOOTS PHARMACY LAMCI PLAZA (DUBAI)",
    "address": "Lamcy Plaza, Unit 134, Ground Flr, Zabeel East, Dubai -",
    "lat": 25.116343,
    "lon": 55.390255
  },
  {
    "name": "ASTER PHARMACY 124 (DUBAI)",
    "address": "Ground Floor,Sukoon Tower, Marina, Dubai -",
    "lat": 25.068604,
    "lon": 55.140964
  },
  {
    "name": "SUPER CARE PHARMACY 28 (DUBAI)",
    "address": "BADIA -",
    "lat": 25.113087,
    "lon": 55.372377
  },
  {
    "name": "SUPER CARE PHARMACY 26 (DUBAI)",
    "address": "Ground Floor, Dubai Marina Mall, DUBAI, UAE -",
    "lat": 25.197403,
    "lon": 55.276767
  },
  {
    "name": "MEDEOR 24X7 HOSPITAL PHARMACY (DUBAI)",
    "address": "Embassy District, Umm Hurair - 1, Sheikh Khalifa Bin Zayed Street (D 88). -",
    "lat": 25.259431,
    "lon": 55.308356
  },
  {
    "name": "BOOTS ARABIAN PLAZA PHARMACY 1 (DUBAI)",
    "address": "Arabian Center, Ground floor unit # 1500, Dubai -",
    "lat": 25.27645,
    "lon": 55.349832
  },
  {
    "name": "BOOTS BURJUMAN PHARMACY (DUBAI)",
    "address": "Burjuman Centre, Unit RU-107-B, SHOP 317-10808-5, Level 1, Khalid Bin Al Waleed St., Dubai -",
    "lat": 25.35899,
    "lon": 55.390033
  },
  {
    "name": "BOOTS PHARMACY- DEIRA CITY CENTRE (DUBAI)",
    "address": "The City  Walk, Shop No. 54, Jumeirah 1, Al Wasl Road, Dubai -",
    "lat": 25.225056,
    "lon": 55.265804
  },
  {
    "name": "BOOTS DUBAI MALL PHARMACY (DUBAI)",
    "address": "The Dubai Mall, Unit FF-257,  Doha Street, Downtown, Dubai -",
    "lat": 25.194481,
    "lon": 55.275589
  },
  {
    "name": "BOOTS PHARMACY - EMIRATES MALL(DUBAI)",
    "address": "Mall of the Emirates, 1st Floor, Al Barsha, Sheikh Zayed Road,  Dubai -",
    "lat": 25.11436,
    "lon": 55.190681
  },
  {
    "name": "BOOTS OASIS PHARMACY (DUBAI)",
    "address": "Oasis Centre, Unit G19, Ground Floor, Sheikh Zayed Road, Dubai -",
    "lat": 25.199869,
    "lon": 55.268734
  },
  {
    "name": "BOOTS RESIDENCES PHARMACY (DUBAI)",
    "address": "Downtown Burj Dubai, Residence Tower 1, Dubai -",
    "lat": 25.086925,
    "lon": 55.147168
  },
  {
    "name": "BOOTS AL SAFA PHARMACY (DUBAI)",
    "address": "Choitram Complex, Opp. Al Safa Park, Al Wasl Rd, Dubai -",
    "lat": 25.225056,
    "lon": 55.265804
  },
  {
    "name": "BOOTS CITY WALK PHARMACY (DUBAI)",
    "address": "he City  Walk, Shop No. 54, Jumeirah 1, Al Wasl Road, Dubai -",
    "lat": 25.225056,
    "lon": 55.265804
  },
  {
    "name": "INTERNATIONAL MODERN HOSPITAL PHARMACY (DUBAI)",
    "address": "Sheikh Rashid Road, Al Rafa�a Area, Bur Dubai -",
    "lat": 25.260976,
    "lon": 55.269157
  },
  {
    "name": "MEDCARE WOMEN AND CHILDREN'S PHARMACY(DUBAI)",
    "address": "Beside Manara Services Centre, Sheikh Zayed Road - Dubai -",
    "lat": 25.11436,
    "lon": 55.190681
  },
  {
    "name": "SUPERCARE PHARMACY 27 (DUBAI)",
    "address": "Dubai Silicon Oasis -",
    "lat": 25.191187,
    "lon": 55.281735
  },
  {
    "name": "PEOPLES PHARMACY LLC (DUBAI)",
    "address": "Vista Tower, Shop No3,NEXT Next to Carrefour Express,Tecom,Al Barsha 3,Dubai ,UAE -",
    "lat": 25.297779,
    "lon": 55.382401
  },
  {
    "name": "ALPHA PEOPLES PHARMACY LLC(DUBAI)",
    "address": "Zeenah Building,Shop No 10,opp.Deira City centre,Carrefour Parking 3,Dubai -",
    "lat": 25.072159,
    "lon": 55.311625
  },
  {
    "name": "ALPHA STAR PHARMACY (DUBAI)",
    "address": "Amber Building, Shop # FB03, Wasl Properties, Adjacent to General Post Office, Karama, Dubai. -",
    "lat": 25.245534,
    "lon": 55.310071
  },
  {
    "name": "ASTER PHARMACY 130 (DUBAI)",
    "address": "Ground Floor , Duja Tower, Trade Center First, Next to Sheraton grand hotel, Sheik Zayed Road, Dubai -",
    "lat": 25.22896,
    "lon": 55.286001
  },
  {
    "name": "AL AMEEN PHARMACY  (DUBAI)",
    "address": "Frij Murar, Near Al Noor Hotel, Naif  Road, -",
    "lat": 25.272454,
    "lon": 55.30438
  },
  {
    "name": "RX PHARMACY (DUBAI)",
    "address": "Ground Floor, Ahmed Plaza Building, Opposite to Al Futtaim Mosque, Naif Road, Deira, Dubai, UAE -",
    "lat": 25.239007,
    "lon": 55.508355
  },
  {
    "name": "ASTER PHARMACY 136 (DUBAI)",
    "address": "Shop No FFA01, Al Khail Mall, Latifat bin Hamdan Street, Industrial Area 4, Alqouse -",
    "lat": 25.154029,
    "lon": 55.237454
  },
  {
    "name": "SUPERCARE PHARMACY DMCC (DUBAI)",
    "address": "Emirates Hill, Cluster-T, Fortune Executive Tower, JLT, DUBAI -",
    "lat": 25.068688,
    "lon": 55.138896
  },
  {
    "name": "ASTER PHARMACY 146 (DUBAI)",
    "address": "Shindaga,Burdubai,Next to Access Clinic,Dubai -",
    "lat": 25.074877,
    "lon": 55.216053
  },
  {
    "name": "MEDICINA AL FAHIDI PHARMACY(DUBAI)",
    "address": "Shop No. G85,Next to al ansari exchange,Al fahidi souq,Bur dubai, Dubai -",
    "lat": 25.264591,
    "lon": 55.296461
  },
  {
    "name": "NEW MEDICINA PHARMACY (DUBAI)",
    "address": "API 1000, Al Wasl Road, Dubai -",
    "lat": 25.158212,
    "lon": 55.217875
  },
  {
    "name": "MEDICINA BEACH ROAD PHARMACY(DUBAI)",
    "address": "Jumeirah Beach road, Opp. Side of hilal bank, next to surf cafe-Dubai -",
    "lat": 25.206496,
    "lon": 55.243866
  },
  {
    "name": "MEDICINA FIRST PHARMACY (DUBAI)",
    "address": "BEACH ROAD,JUMEIRAH-3, OPP. MAX BURGER-Near Barracuda rest.- DUBAI -",
    "lat": 25.088667,
    "lon": 55.191799
  },
  {
    "name": "MEDICINA 1 PHARMACY (DUBAI)",
    "address": "SOUQ AL WASL DISTRICT, AL MAKTOUM HOSPITAL ROAD, DUBAI -",
    "lat": 25.220163,
    "lon": 55.318209
  },
  {
    "name": "SUPERCARE PHARMACY 39 (DUBAI)",
    "address": "Le Grande Community Mall, Dubai Marina, DUBAI -",
    "lat": 25.075161,
    "lon": 55.137036
  },
  {
    "name": "MEDICINA 5 PHARMACY (DUBAI)",
    "address": "GRAND MIDWEST VIEW HOTEL APRTMENT BUILDING, SHEIKH ZAYED ROAD, ALBARSHA 1,DUBAI -",
    "lat": 25.080209,
    "lon": 55.283596
  },
  {
    "name": "MEDICINA 7 PHARMACY (DUBAI)",
    "address": "AL KHALEEJ CENTRE,  AL MANKHOOL ROAD, BURDUBAI, DUBAI -",
    "lat": 25.080209,
    "lon": 55.283596
  },
  {
    "name": "MEDICINA 6 PHARMACY (DUBAI)",
    "address": "Al Attar Business Centre,Al Barsha 1, Near to IBIS Hotel, Sheikh Zayed Road, Dubai -",
    "lat": 24.970988,
    "lon": 55.164461
  },
  {
    "name": "ASTER PHARMACY 149 (DUBAI)",
    "address": "Shop 2 & 3, Al Wasl Building,Karama, Burdubai,Behind Lulu Hypermarket,Dubai -",
    "lat": 25.155639,
    "lon": 55.217111
  },
  {
    "name": "PANORAMA RX PHARMACY BR OF IMARA(DUBAI)",
    "address": "Panorama Building, Next to Regent International School,First Al Khail Street, Al Thanyan 3,DUBAI -",
    "lat": 25.080209,
    "lon": 55.283596
  },
  {
    "name": "SAMARI RX PHARMACY BR OF IMARA HC(DUBAI)",
    "address": "Samari Retail Mall, Next to Samari Residence,Ras Al Khor,DUBAI -",
    "lat": 25.080209,
    "lon": 55.283596
  },
  {
    "name": "VCARE PHARMACY LLC (DUBAI)",
    "address": "Nasmah Tower, Ground Floor, Near Lavender Hotel, Al Ittihad, PO Box 236676, Al Nahda 1 - Dubai, United Arab Emirates",
    "lat": 25.287946,
    "lon": 55.364896
  },
  {
    "name": "AL HAWI PHARMACY(LLC) (DUBAI)",
    "address": "Naser Square, Deira, Dubai -",
    "lat": 25.23944,
    "lon": 55.507155
  },
  {
    "name": "BIN SERAY PHARMACY (L.L.C) (DUBAI)",
    "address": "Oud Mehta Road, Near Lamcy Plaza, Dubai -",
    "lat": 25.080209,
    "lon": 55.283596
  },
  {
    "name": "CO-OPERATIVE PHARMACY (DUBAI)",
    "address": "Al Sabka Road, Deira, Dubai -",
    "lat": 25.080209,
    "lon": 55.283596
  },
  {
    "name": "DOHA PHARMACY LLC (DUBAI)",
    "address": "Al Attar Tower, Shk.Zayed Road, Dubai -",
    "lat": 25.129645,
    "lon": 55.209794
  },
  {
    "name": "DUBAI LIFE PHARMACY (L.L.C) (DUBAI)",
    "address": "Hall No.5, Dubai World Trade Centre, Dubai -",
    "lat": 25.227616,
    "lon": 55.288793
  },
  {
    "name": "FAWAGEE PHARMACY (L.L.C) (DUBAI)",
    "address": "Nad Al Hamar, Dubai -",
    "lat": 25.198633,
    "lon": 55.375277
  },
  {
    "name": "GOLDEN LIFE PHARMACY (LLC) (DUBAI)",
    "address": "Murooj Complex, Shk. Zayed Road, Dubai -",
    "lat": 25.129645,
    "lon": 55.209794
  },
  {
    "name": "GRAND LIFE PHARMACY LLC (DUBAI)",
    "address": "Al Muteena St., Deira, Dubai -",
    "lat": 25.274682,
    "lon": 55.297268
  },
  {
    "name": "GRAND ROYAL PHARMACY LLC (DUBAI)",
    "address": "Rolla Road, Bur Dubai, Dubai -",
    "lat": 25.262499,
    "lon": 55.296249
  },
  {
    "name": "HALA PHARMACY 14 LLC(DUBAI)",
    "address": "Shop No.1, Marina Diamond 5 (A) Dubai Marina, Dubai -",
    "lat": 25.075161,
    "lon": 55.137036
  },
  {
    "name": "HALA PHARMACY 15 LLC(DUBAI)",
    "address": "Shop No5&6, Bldng No:Zen 2-020,Plot no169,Discovery Gradens, Dubai -",
    "lat": 25.080209,
    "lon": 55.283596
  },
  {
    "name": "NATURE'S LIFE PHARMACY LLC(DUBAI)",
    "address": "Al Wasl Road , Dubai, Jumeirah -",
    "lat": 25.225056,
    "lon": 55.265804
  },
  {
    "name": "NEW ALHADIQA PHARMACY L.L.C(DUBAI)",
    "address": "Jumeirah, Wasl Square, Jumeirah -",
    "lat": 25.046533,
    "lon": 55.206286
  },
  {
    "name": "MURSHID PHARMACY L.L.C(DUBAI)",
    "address": "Murshid Bazar, Deira, Dubai -",
    "lat": 25.267947,
    "lon": 55.300778
  },
  {
    "name": "LIFE AL NAHDA PHARMACY L.L.C(DUBAI)",
    "address": "Shop # 3, Twin Tower, Plot # 241-555, Al Nahda , Dubai -",
    "lat": 25.26124,
    "lon": 55.291701
  },
  {
    "name": "LIFE EXPRESS PHARMACY(DUBAI)",
    "address": "Near Welcare Hospital Al Garhoud , Dubai, Al Mamzar area -",
    "lat": 25.233049,
    "lon": 55.337845
  },
  {
    "name": "LIFE MURAQABAT PHARMACY LLC(DUBAI)",
    "address": "Shop#1,R471 building,Wasl Trio block A,Al Muraqabat Rd,dubai -",
    "lat": 25.080209,
    "lon": 55.283596
  },
  {
    "name": "MARINA VIEW PHARMACY LLC(DUBAI)",
    "address": "Dubai Marina,Marina heights Building, Dubai -",
    "lat": 25.067592,
    "lon": 55.130856
  },
  {
    "name": "LIFE PEARL PHARMACY L.L.C(DUBAI)",
    "address": "Shop#9, Marina pearl Buldg,Dubai Marina,Dubai -",
    "lat": 25.080209,
    "lon": 55.283596
  },
  {
    "name": "LIFE TWO PHARMACY L.L.C(DUBAI)",
    "address": "Al Kawakeb Bldg A, 1st Interchange,Sheikh Zayed Road, Dubai -",
    "lat": 25.11436,
    "lon": 55.190681
  },
  {
    "name": "LIWA PHARMACY L.L.C(DUBAI)",
    "address": "Al Mankhool, Dubai -",
    "lat": 25.271814,
    "lon": 55.29956
  },
  {
    "name": "MARINA LIFE PHARMACY LLC(DUBAI)",
    "address": "Dubai Marina, Dubai -",
    "lat": 25.075161,
    "lon": 55.137036
  },
  {
    "name": "MEZHAR LIFE PHARMACY ( L L C )(DUBAI)",
    "address": "Al Mezhar, Dubai -",
    "lat": 25.204316,
    "lon": 55.47688
  },
  {
    "name": "MODERN LIFE PHARMACY L.L.C(DUBAI)",
    "address": "Fruits & Vegetables Market, Aweer, Dubai -",
    "lat": 25.291682,
    "lon": 55.323045
  },
  {
    "name": "NEW MAMZAR PHARMACY LLC(DUBAI)",
    "address": "Century Mall Shopping Mall, Deira, Al Mamzar -",
    "lat": 25.290925,
    "lon": 55.345208
  },
  {
    "name": "NEW MAZAYA PHARMACY EST.(DUBAI)",
    "address": "New Mazaya Pharmacy, G06, Mazaya Shopping Centre, Dubai -",
    "lat": 25.199109,
    "lon": 55.265389
  },
  {
    "name": "NOOR AL IMAN PHARMACY(L.L.C)(DUBAI)",
    "address": "Shop 1, Plot # 356-257, Jumeirah 3, Dubai -",
    "lat": 25.080209,
    "lon": 55.283596
  },
  {
    "name": "PALMSTRIPS PHARMACY L L C(DUBAI)",
    "address": "Palmstrip Mall Building Jumeirah Beach Road Area, Dubai. -",
    "lat": 25.080209,
    "lon": 55.283596
  },
  {
    "name": "RAMADA LIFE PHARMACY L L C(DUBAI)",
    "address": "Near hotel Ramada, Bur Dubai -",
    "lat": 25.156382,
    "lon": 55.407564
  },
  {
    "name": "REAL 3 PHARMACY L.L.C(DUBAI)",
    "address": "Shop no 1, Emart Supermarket, Umm Hurair -",
    "lat": 25.17285,
    "lon": 55.219051
  },
  {
    "name": "REAL 6 PHARMACY L.L.C(DUBAI)",
    "address": "Shop # 1, Al Salaam Tower, Sheik Zayed Road,chelsea Dubai U.A.E. -",
    "lat": 25.111668,
    "lon": 55.206008
  },
  {
    "name": "ROYAL LIFE PHARMACY(L.L.C)(DUBAI)",
    "address": "Al Musalla Rd - Dubai -",
    "lat": 25.358325,
    "lon": 55.393671
  },
  {
    "name": "ROYAL MAMZAR PHARMACY LLC(DUBAI)",
    "address": "Al Mamzar Centre, Dubai, Al Mamzar -",
    "lat": 25.305241,
    "lon": 55.356198
  },
  {
    "name": "LIFE PHARMACY LLC DUBAI BRANCH (DUBAI)",
    "address": "Jood Hotel, Deira -",
    "lat": 25.271524,
    "lon": 55.338898
  },
  {
    "name": "LIFE ROSE PHARMACY LLC(DUBAI)",
    "address": "Shop - 10, E07 Building, Plot No 67, China Cluster, International City, Dubai -",
    "lat": 25.168192,
    "lon": 55.414473
  },
  {
    "name": "LIFE TRIDENT PHARMACY L.L.C(DUBAI)",
    "address": "Shop No. R01 Near Marina Hotel Apt,Next to Blue Mart Suprmarket, , Marina Scape Tower, Dubai Marina -",
    "lat": 25.075161,
    "lon": 55.137036
  },
  {
    "name": "MEDILIFE PHARMACY LLC(DUBAI)",
    "address": "Shop #1, Choithram Bldg, Plot B/1416, Opp Safa Park, Al Wasl Dubai -",
    "lat": 25.198252,
    "lon": 55.256618
  },
  {
    "name": "LIFE AL BADAA PHARMACY L.L.C(DUBAI)",
    "address": "S # 1; Al Badaa Bldg,P 78 Al Badaa,Dubai -",
    "lat": 25.152916,
    "lon": 55.204545
  },
  {
    "name": "CITY LIFE PHARMACY L.L.C(DUBAI)",
    "address": "Shop #2, City Tower 1, Near to crown Plaza,Sheikh Zayed Road, Dubai -",
    "lat": 25.080209,
    "lon": 55.283596
  },
  {
    "name": "NOOR AL SHEFAA PHARMACY LLC(DUBAI)",
    "address": "Opp.Naif Park,  Naif Road, Deira -  Dubai -",
    "lat": 25.080209,
    "lon": 55.283596
  },
  {
    "name": "EXTRA LIFE PHARMACY L.L.C(DUBAI)",
    "address": "Akas Inn hotel Apartment (behind Holiday Inn Al Barsha -",
    "lat": 25.116115,
    "lon": 55.194091
  },
  {
    "name": "LIFE AL RIQQA PHARMACY L.L.C(DUBAI)",
    "address": "Shop# F67, Opp. To Carrefour, Al Ghurair Centre, Al Riqqa, Dubai -",
    "lat": 25.272552,
    "lon": 55.338128
  },
  {
    "name": "MARSA LIFE PHARMACY L.L.C(DUBAI)",
    "address": "Shop#7, MAG 218, Dubai Marina, Dubai. -",
    "lat": 25.075161,
    "lon": 55.137036
  },
  {
    "name": "AL KANZ PHARMACY (L.L.C.)(DUBAI)",
    "address": "Lakeshore Tower ( Bojwani), JLT,Dubai Cluster Y ,Dubai , U. A. E -",
    "lat": 25.068604,
    "lon": 55.140964
  },
  {
    "name": "DEIRA LIFE PHARMACY L.L.C(DUBAI)",
    "address": "Shop#2,State 1 building,�Rigga, Dubai. -",
    "lat": 25.264265,
    "lon": 55.329444
  },
  {
    "name": "YARA PHARMACY (L.L.C) (DUBAI)",
    "address": "Riqa Road, Near KFC, Deira -",
    "lat": 25.28036,
    "lon": 55.30524
  },
  {
    "name": "ZAYD PHARMACY LLC (DUBAI)",
    "address": "Shk. Zayed Road, Dubai. -",
    "lat": 25.080209,
    "lon": 55.283596
  },
  {
    "name": "AL GHUBAIBA PHARMACY (DUBAI)",
    "address": "BUR DUBAI - NEAR AL GHUBAIBA METRO STATION & ETISALAT SHINDAGHA -",
    "lat": 25.261113,
    "lon": 55.284521
  },
  {
    "name": "SUPERCARE PHARMACY 44 (DUBAI)",
    "address": "Motor City, DUBAI -",
    "lat": 25.041828,
    "lon": 55.251455
  },
  {
    "name": "LIFE PHARMACY 3 LLC BRANCH (DUBAI)",
    "address": "LG01A, Next to Fitness First, Deira City Centre, Dubai -",
    "lat": 25.250877,
    "lon": 55.33508
  },
  {
    "name": "LIFE PHARMACY 5 LLC (DUBAI)",
    "address": "Shop#AT040A,First Floor, Dubai Festival City Mall, Dubai -",
    "lat": 25.222246,
    "lon": 55.349098
  },
  {
    "name": "LIFE PHARMACY LLC BRANCH (DUBAI)",
    "address": "Shop # 1, Clover Bay Tower, Business Bay, Dubai -",
    "lat": 25.188727,
    "lon": 55.269669
  },
  {
    "name": "SUSTAINABLE LIFE PHARMACY LLC (DUBAI)",
    "address": "B1 The Sustainable City -",
    "lat": 25.291895,
    "lon": 55.394023
  },
  {
    "name": "CITY PHARMACY (DUBAI)",
    "address": "Al Rigga Rd., Near to Al Rigga Metro Stn., Next to Al Fuad Exchange -",
    "lat": 25.239877,
    "lon": 55.366762
  },
  {
    "name": "SUPERCARE PHARMACY 43 (DUBAI)",
    "address": "Burjuman Mall, DUBAI -",
    "lat": 25.197403,
    "lon": 55.276767
  },
  {
    "name": "ALMOOSA DAY SURGERIES CENTER PHARMACY (DUBAI)",
    "address": "Al Wasl Rd., Jumeirah, Dubai, UAE -",
    "lat": 25.225056,
    "lon": 55.265804
  },
  {
    "name": "ASTER PHARMACY 158 (DUBAI)",
    "address": "Churchil Tower, Business Bay, Dubai -",
    "lat": 25.184543,
    "lon": 55.264603
  },
  {
    "name": "HEALTH FIRST PHARMACY 52 (DUBAI)",
    "address": "White Crown Tower Building, Ground Floor,34 Sheikh Zayed Rd, Dubai -",
    "lat": 25.11436,
    "lon": 55.190681
  },
  {
    "name": "MEDICINA PHARMACY 9(DUBAI)",
    "address": "Wasl Stadium, Oud Metha Rd., Dubai -",
    "lat": 25.245915,
    "lon": 55.31524
  },
  {
    "name": "MEDICINA PHARMACY 12(DUBAI)",
    "address": "All Day Shopping Center, Academic City, Dubai -",
    "lat": 25.080209,
    "lon": 55.283596
  },
  {
    "name": "MEDICINA PHARMACY 13(DUBAI)",
    "address": "Mirdif 35 Avenue, Dubai -",
    "lat": 25.047742,
    "lon": 55.268295
  },
  {
    "name": "MEDICINA PHARMACY 14(DUBAI)",
    "address": "Regal tower, Sa'ada St, Business Bay, Dubai -",
    "lat": 25.192726,
    "lon": 55.260212
  },
  {
    "name": "MEDICINA PHARMACY 15(DUBAI)",
    "address": "Hessa Rd., Albarsha 1, Dubai -",
    "lat": 25.111675,
    "lon": 55.37444
  },
  {
    "name": "MEDICINA PHARMACY 16(DUBAI)",
    "address": "Park Centre , Mirdiff , Dubai -",
    "lat": 25.217784,
    "lon": 55.418412
  },
  {
    "name": "MEDICINA PHARMACY BRANCH 17(DUBAI)",
    "address": "Silicon Oasis, Nova Tower Dubai -",
    "lat": 25.111675,
    "lon": 55.37444
  },
  {
    "name": "EL ASHRAFIA PHARMACY 3 (DUBAI)",
    "address": "Juvenile Care Association Building, Oud Metha -",
    "lat": 25.245915,
    "lon": 55.31524
  },
  {
    "name": "LIFE AL HAMRIYA BRANCH OF LIFE PHARMACY LLC(DUBAI)",
    "address": "Unit A, Ground floor, Fathima Hypermarket, Khalid Bin Al Waleed Rd., Bur Dubai -",
    "lat": 25.25964,
    "lon": 55.287652
  },
  {
    "name": "LIFE TWO PHARMACY LLC BRANCH (DUBAI)",
    "address": "Shop # G84 & G85,Bay Avenue- Business Bay,next to WHSmith Dubai -",
    "lat": 25.080209,
    "lon": 55.283596
  },
  {
    "name": "GRAND IBN SINA PHARMACY (DUBAI)",
    "address": "Al Rigga Road, Deira, Dubai -",
    "lat": 25.080209,
    "lon": 55.283596
  },
  {
    "name": "IBN SINA PHARMACY - NASSER SQUARE (DUBAI)",
    "address": "Nasser Square, Opposite Baniyas Metro Station, Dubai -",
    "lat": 25.204316,
    "lon": 55.47688
  },
  {
    "name": "IBN SINA 43 PHARMACY (DUBAI)",
    "address": "Al Barsha Boutique Al Shaya Building Al Barsha 1 -",
    "lat": 25.112562,
    "lon": 55.199379
  },
  {
    "name": "IBN SINA 46 PHARMACY (DUBAI)",
    "address": "DWC Al Maktoum International Airport, Dubai -",
    "lat": 25.080209,
    "lon": 55.283596
  },
  {
    "name": "IBN SINA 51 PHARMACY (DUBAI)",
    "address": "Discovery Garden, Dubai -",
    "lat": 25.080209,
    "lon": 55.283596
  },
  {
    "name": "IBN SINA 52 PHARMACY (DUBAI)",
    "address": "Jumeirah Park Pavilion, Dubai -",
    "lat": 25.080209,
    "lon": 55.283596
  },
  {
    "name": "IBN SINA 59 PHARMACY (DUBAI)",
    "address": "Mirdif Ortho Clinic/Barajeel Complex, Dubai -",
    "lat": 25.080209,
    "lon": 55.283596
  },
  {
    "name": "IBN SINA 60 PHARMACY (DUBAI)",
    "address": "Arabian Ranches 2, Dubai -",
    "lat": 25.034596,
    "lon": 55.271155
  },
  {
    "name": "IBN SINA 62 PHARMACY (DUBAI)",
    "address": "Mudon Al Salam Community � Shop # 14, Dubai -",
    "lat": 25.080209,
    "lon": 55.283596
  },
  {
    "name": "IBN SINA SCIENTIFIC PHARMACY(DUBAI)",
    "address": "Bur Saeed, Opposite Deira City Center, Dubai -",
    "lat": 25.250877,
    "lon": 55.33508
  },
  {
    "name": "LIFE AL BARSHA SOUTH FOURTH (DUBAI)",
    "address": "Al Barsha South, Dubai -",
    "lat": 25.070636,
    "lon": 55.217196
  },
  {
    "name": "ASTER PHARMACY 204 (DUBAI)",
    "address": "Damascus Street, Al Qusais, Near Grand Hotel, Dubai -",
    "lat": 25.264995,
    "lon": 55.375779
  },
  {
    "name": "IBN ROSHD MODERN PHARMACY(DUBAI)",
    "address": "Grounf Floor, Mohammed Tayeb Khoory Building, Al Barsha 1, PO Box 2099 - Dubai, United Arab Emirates",
    "lat": 25.109107,
    "lon": 55.184071
  },
  {
    "name": "BANIYAS LIFE PHARMACY (DUBAI)",
    "address": "Al Ashrfiah Building, Near Clock Tower, Deira, Dubai - UAE -",
    "lat": 25.274682,
    "lon": 55.297268
  },
  {
    "name": "AL RAWDA PHARMACY LLC BR(DUBAI)",
    "address": "Bayan Business Center, Opp. Carrefour Exp,Dubai Investment Park-1 , Dubai -",
    "lat": 25.00424,
    "lon": 55.154065
  },
  {
    "name": "MEDSTAR HEALTHCARE PHARMACY(DUBAI)",
    "address": "Ground Floor, Gulf Towers, Oud Metha, Dubai -",
    "lat": 25.087917,
    "lon": 55.172902
  },
  {
    "name": "AL TAWAR PHARMACY(DUBAI)",
    "address": "Hor Al Anz, Deira, Dubai, UAE -",
    "lat": 25.3436,
    "lon": 55.393772
  },
  {
    "name": "REAL 7 PHARMACY DMCC BRANCH(DUBAI)",
    "address": "Shop PL-7, Lake Terrace, Cluster D, Jumeirah Lakes Towers, Dubai -",
    "lat": 25.080209,
    "lon": 55.283596
  },
  {
    "name": "NEW SILICON PHARMACY BR OF LIFE PH(DUBAI)",
    "address": "Retail 01, Le Presidium Tower, Dubai Silicon Oasis, Dubai -",
    "lat": 25.110863,
    "lon": 55.376939
  },
  {
    "name": "PREMIER PHARMACY(DUBAI)",
    "address": "Shop # 2, Kings College Hospital Building, Umm Suquim First, Jumeirah, Dubai. -",
    "lat": 25.103985,
    "lon": 55.162778
  },
  {
    "name": "VASAN EYE CARE PHARMACY(DUBAI)",
    "address": "Ground Floor, Shop # 2, Zabeel Plaza, Near Karama Post Office,  Zabeel Road, Al Karama - Dubai, United Arab Emirates",
    "lat": 25.244961,
    "lon": 55.304744
  },
  {
    "name": "KHALIDHA PHARMACY L.L.C (DUBAI)",
    "address": "Shop No:1 Ground Floor, Shehar Karachi Restaurant Building, Latifa Bin Hamdan Street, Al Quoz Industrial Area 3 -",
    "lat": 25.154029,
    "lon": 55.237454
  },
  {
    "name": "HILL LIFE PHARMACY (DUBAI)",
    "address": "Wasl Hub Buld, Shop No# 1, 41 St., Al Karama, Dubai -",
    "lat": 25.190164,
    "lon": 55.412857
  },
  {
    "name": "LIFE AL BARSHA FOURTH 2 BR OF LIFE PHARMACY LLC (DUBAI)",
    "address": "Shop no. 1, Prime Business Center A, Al Barsha South Fourth (Plot no: 240), Dubai. -",
    "lat": 25.080209,
    "lon": 55.283596
  },
  {
    "name": "LIFE PHARMACY LLC DMCC BR (DUBAI)",
    "address": "DMCC DUBAI -",
    "lat": 25.076016,
    "lon": 55.146096
  },
  {
    "name": "ASTER PHARMACY DCC (DUBAI)",
    "address": "-",
    "lat": 24.998108,
    "lon": 55.175698
  },
  {
    "name": "TULIP TWO PHARMACY LLC (DUBAI)",
    "address": "JAFARIA ENDOWMENT, AL QUOZ, DUBAI -",
    "lat": 25.161596,
    "lon": 55.234364
  },
  {
    "name": "TULIP TWO PHARMACY LLC (BRANCH) (DUBAI)",
    "address": "HOSTEL BUILDING, DUBAI SILICON OASIS, DUBAI -",
    "lat": 25.167576,
    "lon": 55.256749
  },
  {
    "name": "EMIRATES HOSPITAL DAY SURGERY & MEDICAL CENTRE LLC IN-HOUSE PHARMACY(DUBAI)",
    "address": "HONSHO STREET, OPP. TO DUBAI KARTDROME, MOTOR CITY, DUBAI -",
    "lat": 25.048915,
    "lon": 55.237327
  },
  {
    "name": "BLUE BELL INTERNATIONAL PHARMACY LLC(DUBAI)",
    "address": "GROUD FLOOR, AL ATTAR BUSSINESS CENTRE,NEAR ADCB METROSTATION, KARAMA,DUBAI -",
    "lat": 25.245221,
    "lon": 55.30239
  },
  {
    "name": "PHARMACY CHOICE(DUBAI)",
    "address": "INDIGO CENTRAL 1, PLOT # 357-0709, AL SAFA 2 , SHEIKH ZAYED ROAD - OPP. SIDE OF NOOR BANK METRO STATION",
    "lat": 25.168409,
    "lon": 55.228388
  },
  {
    "name": "CARE WELL PHARMACY LLC(DUBAI)",
    "address": "SHOP NO.20 , AL QOUZ MALL , AL QOUZ INDU-3 ,DUBAI-U.A.E -",
    "lat": 25.167071,
    "lon": 55.259574
  },
  {
    "name": "MULTICARE PHARMACY LLC(DUBAI)",
    "address": "AL KHAIL GATE COMMUNITY CENTRE, NEAR BLUEMART HYPERMARKET, DUBAI, UAE -",
    "lat": 25.032103,
    "lon": 55.140451
  },
  {
    "name": "THUMBAY PHARMACY LLC- DEIRA (DUBAI)",
    "address": "AL GHURAIR BUILDING, AL MUTEENA STREET, DEIRA, DUBAI -",
    "lat": 25.274682,
    "lon": 55.297268
  },
  {
    "name": "THUMBAY PHARMACY 4 LLC BRANCH DUBAI(DUBAI)",
    "address": "AL NAHDA 1 STREET, AL ITTIHAD RD, HESSA TOWER, NEAR ZAFRANAH, PO BOX-5035, DUBAI -",
    "lat": 25.080209,
    "lon": 55.283596
  },
  {
    "name": "THUMBAY PHARMACY 7 BRANCH(DUBAI)",
    "address": "AL BARSHA 2, AL ZAYED STREET, AL MASHROOM BUILDING, BESIDE GOLDEN SANS, PO BOX- 1885, DUBAI -",
    "lat": 25.107386,
    "lon": 55.204787
  },
  {
    "name": "THUMBAY PHARMACY 8 BRANCH(DUBAI)",
    "address": "SATWA, AL DIYAFA STREET,HILAH SALIM BLDG, BESIDE AL MALLAH RESTAURANT, PO BOX-39803, DUBAI -",
    "lat": 25.231027,
    "lon": 55.268243
  },
  {
    "name": "THUMBAY PHARMACY 10 BRANCH(DUBAI)",
    "address": "AL KHAWANEEJ, AD ALMEIRI, NEAR TO RAMZ AL SALAH, PO BOX-1885, DUBAI -",
    "lat": 25.334992,
    "lon": 55.424568
  },
  {
    "name": "NAJMA AL MUSALLAH PHARMACY LLC(DUBAI)",
    "address": "P.O BOX 38329, SHOP NO:1, OBEROI PROPERTIES BLDG, AL WAHA STREET, DUBAI, UAE -",
    "lat": 25.158572,
    "lon": 55.257296
  },
  {
    "name": "APPLE CARE PHARMACY LLC BRANCH(DUBAI)",
    "address": "GREECE K 14, INTERNATIONAL CITY, DUBAI -",
    "lat": 25.080209,
    "lon": 55.283596
  },
  {
    "name": "AL PLAZA PHARMACY LLC(DUBAI)",
    "address": "AL PLAZA CENTRE OPPOSITE VILLAGE CENTRE, JUMEIRAH BEACH ROAD - DUBAI -",
    "lat": 25.206496,
    "lon": 55.243866
  },
  {
    "name": "AL SHOHOB PHARMACY LLC(DUBAI)",
    "address": "AL SOOR ROAD,BEHIND GOLD LAND,DEIRA DUBAI -",
    "lat": 25.080209,
    "lon": 55.283596
  },
  {
    "name": "MEDICOM� PHARMACY 15(DUBAI)",
    "address": "AL FAHAD PLAZA BUILDING,RIGGA STREET,OPP:KFC ,DUBAI -",
    "lat": 25.267682,
    "lon": 55.314569
  },
  {
    "name": "CITY RELIEF PHARMACY(DUBAI)",
    "address": "GROUND FLOOR,BIN HASHER BUILDING,NAIF ROAD DUBAI -",
    "lat": 25.272454,
    "lon": 55.30438
  },
  {
    "name": "RELIEF PHARMACY LLC(DUBAI)",
    "address": "SAIF CENTRE,NAIF ROAD,NAIF,DEIRA SOUQ,OPP:AL FUTTAIM MOSQUE,DUBAI -",
    "lat": 25.27872,
    "lon": 55.352147
  },
  {
    "name": "THUMBAY PHARMACY DMCC(DUBAI)",
    "address": "JUMEIRAH LAKE TOWERS,  CLUSTER D,LAKE CITY TOWER, DUBAI -",
    "lat": 25.334992,
    "lon": 55.424568
  },
  {
    "name": "SAMARY PHARMACY LLC(DUBAI)",
    "address": "JEBEL ALI MALL, JEBEL ALI INDUSTRIAL AREA, DUBAI -",
    "lat": 25.007636,
    "lon": 55.483243
  },
  {
    "name": "ZAHRAT AL SHEFA PHARMACY LLC(DUBAI)",
    "address": "AL GHAITH BUILDING, MUHAISNAH, DUBAI -",
    "lat": 25.097489,
    "lon": 55.176054
  },
  {
    "name": "BA NAFEA PHARMACY CARE LLC(DUBAI)",
    "address": "S04, SPAIN CLUSTER, INTERNATIONAL CITY, DUBAI -",
    "lat": 25.080209,
    "lon": 55.283596
  },
  {
    "name": "ADVANCED CARE PLUS PHARMACY LLC(DUBAI)",
    "address": "AWQAF Building, Near to UAE Exchange Center,  Jebel Ali Industrial Area 1,  Jebel Ali, Dubai -",
    "lat": 24.979745,
    "lon": 55.155558
  },
  {
    "name": "ADVANCED STAR PHARMACY  LLC(DUBAI)",
    "address": "Shop No : 3,  Nassem Al Madina Super MarketBuliding, Phase 2, Dubai Investment Park, Jebel Ali, Dubai -",
    "lat": 24.970208,
    "lon": 55.208048
  },
  {
    "name": "AL NEEM PHARMACY LLC - JAFZA WEST BRANCH(DUBAI)",
    "address": "Nesto Supermarket Jafza West Dubai  -",
    "lat": 25.187842,
    "lon": 55.284698
  },
  {
    "name": "NEW SANAIYA PHARMACY(DUBAI)",
    "address": "PO BOX 3484, Madina Supermarket - SONAPUR Dubai - UAE -",
    "lat": 25.044362,
    "lon": 55.240822
  },
  {
    "name": "AL SANAIYA PHARMACY-SONAPUR(DUBAI)",
    "address": "Near Baladia Labour Camp -SONAPUR- LABOUR CAMP AREA- DUBAI - U.A.E -",
    "lat": 25.266102,
    "lon": 55.432518
  },
  {
    "name": "AL MADINA AL SANAIYA PHARMACY-AL QUOZ(DUBAI)",
    "address": "PO BOX 69229, Al Quoz Industrial Area 4  Near Al Madina Supermarket. Dubai, UAE -",
    "lat": 25.123371,
    "lon": 55.242561
  },
  {
    "name": "RUBY PHARMACY(DUBAI)",
    "address": "Shop No: 5 -China Cluster International City - Dubai - U.A.E -",
    "lat": 25.168192,
    "lon": 55.414473
  },
  {
    "name": "AL AZHAR PHARMACY-DIP(DUBAI)",
    "address": "PO BOX 69229 Behind Ramla Supermarket,  Dubai Investment Park (DIP-1) Dubai - UAE -",
    "lat": 25.002856,
    "lon": 55.160873
  },
  {
    "name": "AL MANZIL PHARMACY-DIP 2(DUBAI)",
    "address": "Next to Parsons Super Market Building - DIP-2, Dubai -",
    "lat": 24.98902,
    "lon": 55.196809
  },
  {
    "name": "ROYAL RUBY PHARMACY(DUBAI)",
    "address": "PO BOX 69229, Shop #8 inside AK Mart Dubai Investment Park -1 - Dubai, UAE -",
    "lat": 24.980603,
    "lon": 55.15699
  },
  {
    "name": "STAY WELL PHARMACY(DUBAI)",
    "address": "Galleria Mall, 1st Floor, al Barsha 2, Dubai -",
    "lat": 25.109107,
    "lon": 55.184071
  },
  {
    "name": "AL NASEEM PHARMACY LLC(DUBAI)",
    "address": "Qusaiz Manzil Building , Shaikh Rashid Colony,  N/R Air Port Free Zone Metro Station, Dubai -",
    "lat": 25.202019,
    "lon": 55.270066
  },
  {
    "name": "DAR AL NASEEM PHARMACY LLC(DUBAI)",
    "address": "Muhaisnah Plaza Bulding, N/R Madina Mall, Muhaisnah-4, Dubai -",
    "lat": 25.080209,
    "lon": 55.283596
  },
  {
    "name": "ARDH AL NASEEM PHARMACY LLC(DUBAI)",
    "address": "N/R Carrefor Express, Al Nahda 2, Amman Street, Dubai -",
    "lat": 25.249959,
    "lon": 55.518961
  },
  {
    "name": "ABEER AL NOOR PHARMACY LLC(DUBAI)",
    "address": "Plot No.348-0, Shop No. 11 & 12, Behind Sougat Centre, Rashidiya, Dubai -",
    "lat": 25.221856,
    "lon": 55.390432
  },
  {
    "name": "LA RIVIERA LIFE PHARMACY (BR OF LIFE PHARMACY L.L.C)(DUBAI)",
    "address": "Unit S02 in La Riviera Tower, Dubai Marina,Dubai -",
    "lat": 25.075161,
    "lon": 55.137036
  },
  {
    "name": "MEDI PRIME PHARMACY BARSHA HEIGHTS(DUBAI)",
    "address": "Ground Floor, The Onyx Tower 1, The Greens (Al Thanyah Third) Dubai -",
    "lat": 25.201231,
    "lon": 55.27031
  },
  {
    "name": "MEDI PRIME PHARMACY JUMEIRAH BRANCH(DUBAI)",
    "address": "Ground Floor, Al Ferdous 1, Al Wasl Road, Al Safa, Dubai -",
    "lat": 25.159409,
    "lon": 55.220025
  },
  {
    "name": "NAHDA SAHARA PHARMACY LLC(DUBAI)",
    "address": "Behind Zulekha Hospital, Al Nahda, Qusais, Dubai -",
    "lat": 25.26124,
    "lon": 55.291701
  },
  {
    "name": "SAHARA STAR PHARMACY LLC(DUBAI)",
    "address": "Hamriya Shopping Centre, Dubai -",
    "lat": 25.24899,
    "lon": 55.30054
  },
  {
    "name": "ASTER HOSPITAL PHARMACY AL QUSAIS(DUBAI)",
    "address": "9 A Street, Al Qusais Industrial Area 2, Opp. to Madina Mall, Al Qusais, Dubai -",
    "lat": 25.072712,
    "lon": 55.137281
  },
  {
    "name": "LIFE PHARMACY DAMASCUS BRANCH(DUBAI)",
    "address": "Shop No.1, Next to Al Kabayl Center ,Al Qusais 2 Bldng., Damascus Street, �Al Qusais, Dubai - �UAE -",
    "lat": 25.267821,
    "lon": 55.327318
  },
  {
    "name": "LIFE PHARMACY MARINA WALK BRANCH(DUBAI)",
    "address": "Unit No. GA2, Ground Floor, Dubai Marina Towers Retail, Marina Walk, Dubai - UAE -",
    "lat": 25.075161,
    "lon": 55.137036
  },
  {
    "name": "LIFE PHARMACY DWTC BRANCH(DUBAI)",
    "address": "Shop No: R021.02, Concourse 1, Dubai World Trade Centre, Dubai - UAE -",
    "lat": 25.221392,
    "lon": 55.288577
  },
  {
    "name": "C C M LIFE PHARMACY BRANCH(DUBAI)",
    "address": "Unit No. D006A, Ground Floor, Midriff City Centre, Dubai - UAE -",
    "lat": 25.215854,
    "lon": 55.407164
  },
  {
    "name": "NEO PHARMACY LLC AL QUOZ BRANCH(DUBAI)",
    "address": "Khalfan Mhammed Bin Lahej Building, Al Quoz Industrial 2, Dubai -",
    "lat": 25.137299,
    "lon": 55.902259
  },
  {
    "name": "AXON MEDICA PHARMA LLC-SILICON OASIS(DUBAI)",
    "address": "Lynx Tower, Ground Floor, Nad Hessa Street, PO Box 62451, Silicon Oasis - Dubai, United Arab Emirates",
    "lat": 25.036822,
    "lon": 55.230459
  },
  {
    "name": "EMIRATES PHARMACY LLC BRANCH-DISCOVERY GARDENS(DUBAI)",
    "address": "Building 18, Ground Floor,1a Street Zen Cluster, Dubai -",
    "lat": 25.080209,
    "lon": 55.283596
  },
  {
    "name": "ZAHRAT AL NOOR PHARMACY LLC(DUBAI)",
    "address": "First Floor Pasons Hypermarket, Above Landmark Restaurant, Dubai Investment Park-2, Dubai, U.A.E. , 392192 -",
    "lat": 24.970208,
    "lon": 55.208048
  },
  {
    "name": "AMBER CLINIC LLC COMMUNITY (OUTPATIENT) PHARMACY(DUBAI)",
    "address": "Business Center,2nd Floor,26 B Street,Al Rigga, Near IBIS Hotel,Deira,Dubai Deira,Dubai -",
    "lat": 25.123561,
    "lon": 55.390063
  },
  {
    "name": "APOTEC PHARMACY LLC(DUBAI)",
    "address": "Abdulla Al Romathi Building Al Jaddaf,Near Belhasa Driving Center - Beside Mosque - Dubai -",
    "lat": 25.237996,
    "lon": 55.272686
  },
  {
    "name": "AL BAIROONI PHARMACY LLC(DUBAI)",
    "address": "Room No:3,Ground Floor,4a Strret 3,Karama,Near By Burjuman Metro Station Exit -2,Dubai -",
    "lat": 25.258541,
    "lon": 55.400035
  },
  {
    "name": "AL BARAKA PHARMACY LLC(DUBAI)",
    "address": "Shop No. 9 & 10, A & B Block, Behind Old Al Maktoum Hospital, AL Nakheel Road, Yousek Baker Road, Deira Dubai-U.A.E. -",
    "lat": 25.080209,
    "lon": 55.283596
  },
  {
    "name": "CARE & CURE PHARMACY LLC(DUBAI)",
    "address": "Shop No - 04, Building No. 15,  Cluster Zen 02,  Plot No. 853 Discovery Gardens, Street 1, Jabel Ali-1, Dubai, U.A.E. -",
    "lat": 25.037906,
    "lon": 55.147475
  },
  {
    "name": "AL JUMEIYAH AL TAAWONIYAH PHARMACY LLC(DUBAI)",
    "address": "Shop NO.2, Ground Floor, Union Co-op Society, 30th Street, Mankhool, Karama Dubai- U.A.E. -",
    "lat": 25.244408,
    "lon": 55.30771
  },
  {
    "name": "HORIZON HEALTH PHARMACY LLC(DUBAI)",
    "address": "Ground floor, Al Thuraya Tower, opposite Time Hotel, Barsha Heights/Tecom, Dubai -",
    "lat": 25.196935,
    "lon": 55.263556
  },
  {
    "name": "VIVA PHARMACY LLC(DUBAI)",
    "address": "Villa No.117B, Al Wasl Road Jumeirah 1St, Dubai, UAE -",
    "lat": 25.190513,
    "lon": 55.242365
  },
  {
    "name": "NAD SHAMMA PHARMACY LLC(DUBAI)",
    "address": "Shop No.3, Old Kadooli Building, Near Fire Station, Al Rashidiya ,Dubai -",
    "lat": 25.268887,
    "lon": 55.297125
  },
  {
    "name": "FAJAR ALSATWA PHARMACY L.L.C (DUBAI)",
    "address": "Al Bada Oasis Bldg, Al Hudaibah Street, Satwa, Dubai -",
    "lat": 25.231242,
    "lon": 55.285562
  },
  {
    "name": "NOOR AL SATWA PHARMACY LLC(DUBAI)",
    "address": "Al Satwa Road - Salim Suhail Al Amri's Building. - Po Box 66778, Dubai -",
    "lat": 25.221087,
    "lon": 55.269411
  },
  {
    "name": "MADINAT AL QOUZ PHARMACY LLC(DUBAI)",
    "address": "Farnek Building - Shop No.3 ,Al Qouz Industrial Area, Po Box - 128800, Dubai -",
    "lat": 25.167071,
    "lon": 55.259574
  },
  {
    "name": "NAHDA AL NASEEM PHARMACY LLC(DUBAI)",
    "address": "Ground Floor, Al Nahda Building, Baghadad Street, Dubai, P.O.Box: 47540, Dubai -",
    "lat": 25.271524,
    "lon": 55.338898
  },
  {
    "name": "NEW AL SUWAIDI PHARMACY LLC(DUBAI)",
    "address": "Naema Ali Buamim Building, Al Hudaiba Street - Satwa, Dubai - Po Box - 186369 -",
    "lat": 25.231242,
    "lon": 55.285562
  },
  {
    "name": "AL RASHEED PHARMACY LLC(DUBAI)",
    "address": "Shop # 7-8, Ground Floor, Al Maktoum Building, Omar Bin Al Khattab Road, Al Baraha, Deira, Po Box: 251702, Dubai -",
    "lat": 25.279164,
    "lon": 55.31273
  },
  {
    "name": "ORBIT STAR PHARMACY LLC(DUBAI)",
    "address": "Shop � 5 -Al Attar Business Avenue , Near Muhaisnah Madina Mall -Barsha 1 , Dubai - Po Box 66778 -",
    "lat": 25.255768,
    "lon": 55.301505
  },
  {
    "name": "MEDI PLUS PHARMACY LLC(DUBAI)",
    "address": "Inside Zahra Hospital � Dubai, Near to Sharaf DJ Metro Station, Sheikh Zayed Rd, AL Barsha 1-PO BOX-66778 -",
    "lat": 25.11436,
    "lon": 55.190681
  },
  {
    "name": "LIFE PHARMACY 11 BR OF LIFE PHARMACY LLC (DUBAI)",
    "address": "Shop No.2, Near Creative Minds Shop, � Barsha, Umm Suqeim Road, Dubai - UAE -",
    "lat": 25.125873,
    "lon": 55.19876
  },
  {
    "name": "LIFE PHARMACY I B M BR OF LIFE PHARMACY LLC (DUBAI)",
    "address": "Unit No. IBS-GF-078, Persia Court, Ibn Battura Mall, Dubai -",
    "lat": 25.080209,
    "lon": 55.283596
  },
  {
    "name": "HEALTH POINT PHARMACY LLC (DUBAI)",
    "address": "Unit no. 2 & 3, Chaimaa Premiere, JVC, Al Barsha South Fourth, Dubai -",
    "lat": 25.080209,
    "lon": 55.283596
  },
  {
    "name": "LIFE PHARMACY 19 BR OF LIFE PHARMACY LLC (DUBAI)",
    "address": "Inside Carrefour, Mirdiff City Centre, Dubai, UAE -",
    "lat": 25.215854,
    "lon": 55.407164
  },
  {
    "name": "LIFE PHARMACY 20 BR OF LIFE PHARMACY LLC (DUBAI)",
    "address": "Inside Carrefour, Deira City Centre, Dubai, UAE -",
    "lat": 25.250877,
    "lon": 55.33508
  },
  {
    "name": "GRAND INFINITY PHARMACY LLC BRANCH (DUBAI)",
    "address": "Shop No. 4, Next to Grand Excelsior Hotel, Muteena Street, Deira, Dubai -",
    "lat": 25.080209,
    "lon": 55.283596
  },
  {
    "name": "LIFE PHARMACY 27 BR OF LIFE PHARMACY LLC(DUBAI)",
    "address": "Unit No. FF01-1, FIRST FLOOR, ARABIAN RANCHES II , Dubai -",
    "lat": 25.080209,
    "lon": 55.283596
  },
  {
    "name": "LIFE PHARMACY 45 BR OF LIFE PHARMACY LLC(DUBAI)",
    "address": "Shop 4 to 8, Raja & Sister Building, Plot 421-688, Opposite to Al Kabayal, Al Warqa, Dubai, UAE -",
    "lat": 25.080209,
    "lon": 55.283596
  },
  {
    "name": "MEDI PRIME PHARMACY AL WARQA (DUBAI)",
    "address": "Al Warqa City Mall, Ground Floor, Al Warqa 3, Dubai -",
    "lat": 25.155208,
    "lon": 55.228561
  },
  {
    "name": "CLEMENCEAU MEDICAL CENTER FZ-LLC (PHARMACY) (DUBAI)",
    "address": "Building 22, PO Box 112693, DHCC Phase 2, Al Jadaf, DUBAI -",
    "lat": 25.21243,
    "lon": 55.318104
  },
  {
    "name": "PIC PAX PHARMACY LLC (DUBAI)",
    "address": "SB18, 2nd floor, Al Ghurair Center, Deira, Dubai, UAE -",
    "lat": 25.272552,
    "lon": 55.338128
  },
  {
    "name": "LIFE PHARMACY 54 BR OF LIFE PHARMACY LLC (DUBAI)",
    "address": "GFR04, Ground Floor, Dubai Creek Residence South Podium, Dubai -",
    "lat": 25.079108,
    "lon": 55.158437
  },
  {
    "name": "HALA PHARMACY BR OF LIFE PHARMACY LLC (DUBAI)",
    "address": "Shops nos. 13 & 14,Ground floor, Water�s Edge Damac Maison Canal Views, Business Bay, Dubai -",
    "lat": 25.080209,
    "lon": 55.283596
  },
  {
    "name": "IBN SINA 41 PHARMACY (BR OF IBN SINA GROUP PHARMACIES (L.L.C))(DUBAI)",
    "address": "Meydan Heights - Nad Al ShebaNad Al Sheba 1 - Dubai -",
    "lat": 25.080209,
    "lon": 55.283596
  },
  {
    "name": "IBN SINA 95 PHARMACY (BR OF IBN SINA GROUP PHARMACIES (L.L.C))(DUBAI)",
    "address": "Souq Extra Mall - Dubai Silicon Oasis - Dubai -",
    "lat": 25.080209,
    "lon": 55.283596
  },
  {
    "name": "IBN SINA 96 PHARMACY )BR OF IBN SINA GROUP PHARMACIES )L.L.C))(DUBAI)",
    "address": "Souq Extra - 17 10A Street - Al Quoz - Al Quoz 1 - Dubai -",
    "lat": 25.159182,
    "lon": 55.257226
  },
  {
    "name": "AL RAZI PHARMACY (DUBAI)",
    "address": "Mai Tower/Al Nahda.1, Dubai -",
    "lat": 25.287946,
    "lon": 55.364896
  },
  {
    "name": "ASTER HOSPITAL PHARMACY SONAPUR LLC (DUBAI)",
    "address": "Aster Hospital, Algeria Street, Muhaisnah, Sonapur -",
    "lat": 25.242695,
    "lon": 55.428376
  },
  {
    "name": "ZAITOON PHARMACY LLC (DUBAI)",
    "address": "Near RTA Al Quoz Bus Depot, Al Quoz Industrial Area 4 -",
    "lat": 25.161596,
    "lon": 55.234364
  },
  {
    "name": "DR ABDULLA�S PHARMACY L.L.C (DUBAI)",
    "address": "Shop No.02, Mona Residence, Amman Street, PO Box 236273 - Dubai, United Arab Emirates",
    "lat": 25.285581,
    "lon": 55.406942
  },
  {
    "name": "NEO PHARMACY LLC LLC BRANCH (DUBAI)",
    "address": "Jabal Ali Industrial Second Salim Ali Rashid Suwailim 7 -",
    "lat": 24.985844,
    "lon": 55.121262
  },
  {
    "name": "YASMED PHARMACY (DUBAI)",
    "address": "Opp.West Fort Hotel, Naif Road, Deira, Dubai -",
    "lat": 25.272454,
    "lon": 55.30438
  },
  {
    "name": "HEALTHHUB PHARMACY BR OF AL FUTTAIM HEALTH CARE SINGLE PERSON COMPANY (AL QUSAIS) (DUBAI)",
    "address": "Manazel Deira Building, Ground Floor, Next To Fortuneplaza Hotel - Qusais 1 -",
    "lat": 25.236466,
    "lon": 55.303533
  },
  {
    "name": "HEALTHUBPHARMACY (BR.ALFUTTAIM HEALTHCARE SINGLE PERSON COMPANY LLC) ( AL WARQA ) (DUBAI)",
    "address": "Mushroom Building 3 , Ground Floor , Al warqa -1 , Al warqa street - Behind Mass supermarket",
    "lat": 24.782313,
    "lon": 54.7038515
  },
  {
    "name": "HEALTHHUBPHARMACY BR.ALFUTTAIM HEALTHCARE SINGLE PERSON COMPANY L L ( FESTIVAL PLAZA ) (DUBAI)",
    "address": "Jebel Ali - 1 festival plaza st Festival Plaza Mall SU244 and SU245 - Dubai, United Arab Emirates",
    "lat": 25.223906,
    "lon": 55.359923
  },
  {
    "name": "HEALTHHUB PHARMACY (BR OF ALFUTTAIM HEALTH CARE SINGLE PERSON COMPANY L.L.C) (DSO) (DUBAI)",
    "address": "Shop 6 , Lynx Tower, Dubai Silicon Oasis -",
    "lat": 25.236466,
    "lon": 55.303533
  },
  {
    "name": "HARLEY INTERNAITONAL MEDICAL CLINIC PHARMACY (DUBAI)",
    "address": "3rd floor, Nashwan Building, Al Mankhool , PO Box 34801 - Dubai, United Arab Emirates",
    "lat": 25.253393,
    "lon": 55.293529
  },
  {
    "name": "JUPITER AL QUSAIS POLYCLINIC L.L.C PHARMACY (DUBAI)",
    "address": "Al Mazoon Building, No.207 2nd Floor, Damacus Road, P.O. Box 20657, Al Qusais - Dubai, United Arab Emirates",
    "lat": 25.282581,
    "lon": 55.387992
  },
  {
    "name": "AMERICAN HOSPITAL CLINICS PHARMACY DUBAI MEDIA CITY BR OF AMERICAN HOSPITAL DUBAI LLC (DUBAI)",
    "address": "Al Safouh 2nd, Ground Floor, Business Central Towers, P.O Box 5566 - Dubai, United Arab Emirates",
    "lat": 25.093698,
    "lon": 55.155426
  },
  {
    "name": "YOUR CENTER PHARMACY L.L.C (DUBAI)",
    "address": "Ground Floor, Shop No:3, Afnan 3, Dubai Production City Midtown, PO Box 452761, Production City - Dubai, United Arab Emirates",
    "lat": 25.033007,
    "lon": 55.194003
  },
  {
    "name": "DUBAI CORPORATION FOR AMBULANCE SERVICES(DCAS)(DUBAI)",
    "address": "Warsan Area - Main Building. Post Office. UAE , Dubai 99117 -",
    "lat": 24.965315,
    "lon": 55.155993
  },
  {
    "name": "AMERICAN SPINE CENTRE FZ LLC(DUBAI)",
    "address": "Al Razi, Building 64, Block E/F, Suite 120-126, Dubai Healthcare City, Dubai -",
    "lat": 25.080209,
    "lon": 55.283596
  },
  {
    "name": "AL TADAWI MEDICAL CENTRE (DUBAI)",
    "address": "Ground Floor, Al Masood Bldg, Airport Road, Deira -",
    "lat": 25.28036,
    "lon": 55.30524
  },
  {
    "name": "MEDCARE EYE CENTRE (DUBAI)",
    "address": "Mathloob Building, Block F, First Floor, Shk Zayed Road, Near to MOSH Hospital, Dubai -",
    "lat": 25.080209,
    "lon": 55.283596
  },
  {
    "name": "HEALTH BAY DAY SURGERY CENTER L.L.C (DUBAI)",
    "address": "Villa 977, Umm Suquiem 2, Al Wasl Road, PO Box 118012 - Dubai, United Arab Emirates",
    "lat": 25.143552,
    "lon": 55.207729
  },
  {
    "name": "CHARME DAY SURGERY CENTER (DUBAI)",
    "address": "Villa No 1035 & 1039, Al Wasl Road, Al Manara, PO Box 413280, Jumeirah - Dubai, United Arab Emirates",
    "lat": 25.143552,
    "lon": 55.207729
  },
  {
    "name": "FIRST MED DAY SURGERY CENTER LLC(DUBAI)",
    "address": "Hamarain Center, 2nd Fl, Gate 4 & 7, Abu Bakr, Al Siddique St, Al Muraqqabat, Deira, Dubai -",
    "lat": 25.080209,
    "lon": 55.283596
  },
  {
    "name": "MEDSTAR HEALTHCARE LLC(DUBAI)",
    "address": "Ground Floor, Gulf Towers, Opposite Of Dubai Healthcare City,Oud Metha, Dubai -",
    "lat": 25.087917,
    "lon": 55.172902
  },
  {
    "name": "DR. ISMAIL DAY SURGICAL CENTRE (DUBAI)",
    "address": "Wasl Hub Buld, Shop No# 2-11, 41 St., Al Karama, Dubai -",
    "lat": 25.24042,
    "lon": 55.300745
  },
  {
    "name": "EMIRATES HOSPITAL DAY SURGERY & MEDICAL CENTRE LLC(DUBAI)",
    "address": "HONSHO STREET, OPP. TO DUBAI KARTDROME, MOTOR CITY, DUBAI -",
    "lat": 25.048915,
    "lon": 55.237327
  },
  {
    "name": "ASTER DAY SURGERY CENTRE LLC AL MANKHOOL(DUBAI)",
    "address": "Mankhool, Kuwait Road, Bur Dubai, Dubai, UAE -",
    "lat": 25.143552,
    "lon": 55.207729
  },
  {
    "name": "ADVANCED CARE ONCOLOGY CENTER LLC(DUBAI)",
    "address": "Al Furjan, Jebel Ali 1, Dubai, UAE -",
    "lat": 25.201151,
    "lon": 55.265483
  },
  {
    "name": "HEALTHHUB ( FESTIVAL CITY DAY SURGERY CENTER AND SPECIALTY CLINICS ) (DUBAI)",
    "address": "Dubai Festival City, Festival City Mall , Next To IKEA - Dubai, United Arab Emirates",
    "lat": 25.080209,
    "lon": 55.283596
  },
  {
    "name": "MAGRABI EYE HOSPITAL - OUTPATIENT SURGERY CENTER (DUBAI)",
    "address": "Second Floor,Building No 64 , Block E ,Dubai Healthcare city - Dubai -",
    "lat": 25.080209,
    "lon": 55.283596
  },
  {
    "name": "YOUR CENTER POLY CLINIC L.L.C (DUBAI)",
    "address": "Ground Floor, Shop No:4, Afnan 3, Dubai Production City Midtown, PO Box 452761, Production City - Dubai, United Arab Emirates",
    "lat": 25.033007,
    "lon": 55.194003
  }
]